id,cidade,uf,lat,lng,nome_polo,nome_fantasia,logradouro,numero,bairro,cep,complemento,telefone1,telefone2,email1,email2,url
1163,Monte Sião,MG,-22.434,-46.573437,MONTE SIÃO - SÃO SIMÃO,Polo UAB Monte Sião,Av. das Fontes,771,São Simão,37580000,NULL,(35) 34653053,(35) 991885719,coordenacaopolouabmontesiao@gmail.com,elisandrapaulasantos@gmail.com,NULL
17,Santana,AP,-0.04211690,-51.16556940,SANTANA - NOVA BRASÍLIA,POLO UAB - SANTANA,Av. Antonio Nunes,1206,Nova Brasilia,68925000,NULL,(96) 32833563,(),uab.polosantana@yahoo.com.br,NULL,NULL
672,Santa Isabel do Rio Negro,AM,-0.27255260,-65.47573600,SANTA ISABEL DO RIO NEGRO - SAO JUDAS TADEU,ESCOLA TEM. BRIGADEIRO EDUARDO GOMES,Av. Eduardo Gomes,0,São Judas Tadeu,69740000,NULL,(97) 34411040,(),polouabsirn@gmail.com,NULL,NULL
131,Salinópolis,PA,-0.631168,-47.346938,SALINOPOLIS - PORTO GRANDE,POLO DE APOIO PRESENCIAL DE SALINOPOLIS,Av. Julio Cesar,39,Alacilândia,68721-00,NULL,(91) 34231578,(),polouabsalinopolis@yahoo.com.br,NULL,NULL
365,Cachoeira do Arari,PA,-0.85635920,-48.96059720,CACHOEIRA DO ARARI - PETROPOLIS,CACHOEIRA DO ARARI,Avenida Coronel Bento Miranda,500,Petrópolis,68840000,NULL,(91) 37581550,(),polouabdalcidiojurandir@hotmail.com,semed_ca@yahoo.com.br,NULL
495,Igarapé-Miri,PA,-1.06951300,-51.51500770,IGARAPE-MIRI - CIDADE NOVA,POLO UAB-IGARAPE-MIRI: CENTRO DE FORMACAO ACAI,Rua Simplicio de Moraes,0,Cidade Nova,68430000,NULL,(91) 37551351,(),uab_uepaigarapemiri@hotmail.com,gracieteeluziel@hotmail.com,NULL
358,Breves,PA,-1.29369760,-50.51355890,BREVES - AEROPORTO,CENTRO DE DESENV. E ED.PROFISSIONAL DR.JOAO MESSIAS DOS SANTOS-CEDEP,Av. Rio Branco,1752,Aeroporto,68800-00,NULL,(91) 93538165,(91) 37832081,polo.breves.pa.uab@hotmail.com,NULL,NULL
327,Barcarena,PA,-1.51997010,-48.69219110,BARCARENA - SAO FRANCISCO,POLO UAB - BARCARENA,Rodovia PA 481,0,Bairro São Francisco,68447000,NULL,(91) 983288831,(),polouabbarcarena1@gmail.com,NULL,NULL
127,Moju,PA,-1.891879,-48.76535,MOJU - LIDERANCA,POLO UAB - MOJU,Rua Vereador Salomão Cardoso,53,Liderança,68790000,NULL,(91) 37561383,(),eadpolomoju@yahoo.com.br,NULL,NULL
1184,Vila Rica,MT,-10.018334,-51.110642,VILA RICA - BELA VISTA,Polo UAB de Vila Rica,"Avenida Perimetral Leste, qda 47",0,Bela Vista,78645000,NULL,(66) 35542571,(66) 84080974,nucleovilarica@unemat.br,tinalimasousa@hotmail.com,Av Perimetral Leste
362,Buritis,RO,-10.12695850,-63.86405690,BURITIS - SETOR 1,CENTRO TECNOLOGICO DE FORMACAO INICIAL E CONTINUADA DO MAGISTERIO PUBLICO MUNICIPAL DE BURITIS,Av Ayrton Senna,971,Centro,76880000,Centro Tecnológico de Formação,(69) 32383998,(),polouabburitis@gmail.com,demicio@ig.com.br,NULL
1052,Aripuanã,MT,-10.17509800,-59.44787750,ARIPUANA - CENTRO,prefeitura municipal de aripuanã,Rua Pastor Alfredo Nogueira,607,Centro,78325-00,NULL,(66) 35653900,(),NULL,NULL,NULL
589,Nossa Senhora da Glória,SE,-10.18341520,-37.51080910,NOSSA SENHORA DA GLORIA - SILOS,POLO UAB - NOSSA SENHORA DA GLORIA,"Rodovia Engenheiro Jorge Neto, km 3",0,Silos,49680000,NULL,(79) 34111421,(79) 34111425,maisahdantas@yahoo.com.br,NULL,NULL
290,Palmas,TO,-10.24909100,-48.32428580,PALMAS - PLANO DIRETOR NORTE,POLO DE EAD EM PALMAS,"Quadra 206 norte, Av. LO 4",4,Plano Diretor norte,77006244,NULL,(63) 32186154,(),uabpalmas@tecnologia.to.gov.br,marilhasm@tecnologia.to.gov.br,NULL
594,Nova Mamoré,RO,-10.35559230,-64.62142810,NOVA MAMORE - CIDADE NOVA,POLO UAB DO MUNICIPIO DE NOVA MAMORE,Rua Raimundo Fernandes,2888,Cidade Nova,76857000,NULL,(69) 35442776,(),polouabnovamamore@gmail.com,uab@novamamore.ro.gov.br,NULL
428,Corrente,PI,-10.36934790,-45.14945050,CORRENTE - CENTRO,VALE DO CORRENTE,Praça Joaquim Nogueira,73,Centro,64980000,NULL,(),(),uabvaledocorrente@gmail.com,NULL,NULL
390,Carira,SE,-10.38335060,-37.68122800,CARIRA - VILA NOVA,POLO DE APOIO PRESENCIAL DE CARIRA,Rua João Paulo da Conceição,0,Vila Nova,49550000,NULL,(79),(),polocarira@gmail.com,NULL,NULL
575,Mateiros,TO,-10.38536670,-46.43930540,MATEIROS - CENTRO,POLO DE APOIO PRESENCIAL DA UAB DE MATEIROS,Avenida Maranhão,0,Centro,77593000,Escola Municipal Estafanio Telles Chagas,(63) 35341133,(63) 35341008,uabmateiros@tecnologia.to.gov.br,pitholomeus@hotmail.com,NULL
458,Euclides da Cunha,BA,-10.42066760,-38.73681870,EUCLIDES DA CUNHA - JEREMIAS,CAMPUS XXII DA UNIVERSIDADE DO ESTADO DA BAHIA,Rua Enock Canário de Araújo,0,Jeremias,48500-00,NULL,(75) 32713227,(75) 999980989,Itsantos@uneb.br,Ivetesantoss@bol.com.br,NULL
590,Nossa Senhora das Dores,SE,-10.46309930,-37.23299790,NOSSA SENHORA DAS DORES - CENTRO,POLO PRESENCIAL PROFESSORA LUCIA SANTANA OLIVEIRA,Praça Cônego Miguel Monteiro Barbosa,134,Praça da Matriz,49600000,NULL,(79) 32651322,(),uabpolodores@gmail.com,NULL,NULL
266,Brejo Grande,SE,-10.49181950,-36.45807750,BREJO GRANDE - CENTRO,POLO FOZ DO SAO FRANCISCO-  B. GRANDE/ SE,Rua Dr. Eneas Ferreira,510,Centro,49995000,NULL,(79) 33661424,(),polouabbrejogrande@gmail.com,polofozdosaofrancisco@gmail.com,NULL
1063,Campo Formoso,BA,-10.509092,-40.324622,CAMPO FORMOSO - CENTRO,CENTRO DE FORMACAO DOS PROFISSIONAIS DA EDUCACAO,Rua Arsenio Alves,0,Centro,44790000,NULL,(74) 36451229,(),pmcf.educacao@gmail.com,NULL,NULL
8,Xapuri,AC,-10.53493910,-68.57241120,XAPURI - CENTRO,CENTRO ESTADUAL DE EDUCACAO A DISTANCIA - XAPURI - UAB,Rua Beijamin Constant,0,Centro,69930000,NULL,(68) 35422387,(),ENSINO.EDUCACAO@AC.GOV.BR,NULL,NULL
268,Japaratuba,SE,-10.56296090,-36.91110570,JAPARATUBA - CENTRO,POLO UAB - JAPARATUBA,Av. Rio de Janeiro,0,Centro,49960-00,Anexo ao Estádio Tozão,(79) 32722355,(),uabem.japaratuba@gmail.com,NULL,NULL
433,Cristalândia,TO,-10.58804610,-49.44660050,CRISTALANDIA - CENTRO,POLO DE EAD DE CRISTALANDIA,Avenida Dom Jaime Antônio Schuck,2600,Centro,77490000,Prédio,(63) 33540199,(),uabcristalandia@seduc.to.gov.br,benzanila@gmail.com,NULL
784,Colíder,MT,-10.67456640,-55.40286800,COLIDER - SANTA CLARA,CENTRO DE APOIO DE COLIDER PRO-LICENCIATURA I,Av. Dauri Riva,962,Santa Clara,78500000,Setor Norte,(66) 35411315,(),educacao@colider.mt.gov.br,smec_2@hotmail.com,NULL
2,Brasiléia,AC,-10.70599300,-69.19239160,BRASILEIA - CENTRO,POLO UAB - BRASILEIA,Av. Prefeito Rolando Moreira,230,centro,69932000,NULL,(68) 35463539,(),polouab.brasileia@ac.gov.br,ceciliaoliveister@gmail.com,NULL
647,Porto Nacional,TO,-10.70688450,-48.41353120,PORTO NACIONAL - CENTRO,POLO DE APOIO PRESENCIAL DE PORTO NACIONAL,Rua Getúlio Vargas,NULL,Centro,77013020,Esquina com a rua Bartolomeu Bueno,(63) 33635968,(),uabportonacional@seduc.to.gov.br,NULL,NULL
272,São Domingos,SE,-10.77901860,-37.58541840,SAO DOMINGOS - CENTRO,POLO UAB - SAO DOMINGOS,Av. José Freire de Lima,0,Centro,49525-00,NULL,() 34551491,(79),polosaodomingos.cesad@gmail.com,marinalvaufs@gmail.com,NULL
270,Poço Verde,SE,-10.83230270,-38.18997820,POCO VERDE - CENTRO,POLO UAB - POCO VERDE,Rua José Rodrigues de Melo,124,Centro,49490-00,NULL,(79) 35492095,(),UABPOCOVERDE@GMAIL.COM,MARCOSLINOL@HOTMAIL.COM,NULL
213,Ji-Paraná,RO,-10.88054270,-61.96939700,JI-PARANA - JARDIM DOS IMIGRANTES,POLO UAB - JI-PARANA,Transcontinental,437,Centro,76900041,NULL,(69) 99948844,(),UABPOLOJIPARANA@GMAIL.COM,NULL,NULL
545,Lagarto,SE,-10.90573880,-37.68122800,LAGARTO - COLONIA TREZE,POLO PRESENCIAL DO MUNICIPIO DE LARGATO - COLONIA TREZE,Av. Antonio Martins Menezes,0,Centro,49400-00,Povoado Colônia 13,(79) 36421657,(79) 99378534,marcosdo13@gmail.com,uabcoloniatreze@yahoo.com.br,uabcoloniatreze@yahoo.com.br
869,São Cristóvão,SE,-10.96667390,-37.25440650,SAO CRISTOVAO - ROZA ELZE,POLO DE APOIO PRESENCIAL DA UAB/UFS - SAO CRISTOVAO,Av. Marechal Rondon,0,Jardim Rosa Elze,49100-00,Cid. Universitária Prof. José Aloísio de Campos - Didática 2,(79) 21056870,(79) 21056869,quiteria.barros@seed.se.gov.br,lucinhab7@hotmail.com,www.cesad.ufs.br
115,Juara,MT,-11.00498360,-57.46272590,JUARA - CENTRO,POLO UAB - JUARA,Rua Piracicaba,105W,Centro,78575000,NULL,(66) 35564933,(),uabjuara@hotmail.com,valdirene_juara@hotmail.com,NULL
27,Itapicuru,BA,-11.23628920,-38.23220280,ITAPICURU - CENTRO,POLO UAB - ITAPICURU,Praça da Bandeira,320,Centro,48475-00,NULL,(75) 34302323,(75) 34302153,poloitapicuru@gmail.com,NULL,poloitapicuru@gmail.com
267,Estância,SE,-11.24341800,-37.42544440,ESTANCIA - CENTRO,POLO SENADOR JULIO CESAR LEITE,Praça Jackson de Figueiredo,75,Centro,49200000,NULL,(79) 35221461,(79) 98792971,polouabestancia.se@gmail.com,polouabestancia1@gmail.com,NULL
119,São Félix do Araguaia,MT,-11.27486410,-52.53186040,SAO FELIX DO ARAGUAIA - CENTRO,POLO UAB - SAO FELIX DO ARAGUAIA,Rua João Irineu,0,Centro,78670000,Esquina com a Rua do Comércio,(66) 35222227,(66) 35221140,uabertabrasil@yahoo.com.br,sfa.cefapro@seduc.mt.gov.br,NULL
264,Arauá,SE,-11.27800520,-37.57476470,ARAUA - CENTRO,POLO DA UAB JOALDO COSTA CARVALHO - ARAUA,Rua José Dias Filho - Conjunto Alzira Costa,0,Centro,49220-00,ANTIGA ESCOLA ESTADUAL JOALDO COSTA CARVALHO,(79) 35471756,(),poloaraua.ufs@gmail.com,nubia_medeiro@hotmail.com,www.poloarauaufs.blogspot.com
507,Irecê,BA,-11.304561,-41.857629,IRECE - CENTRO,POLO UAB IRECE,AVENIDA CEL. TERÊNCIO DOURADO,0,CENTRO,44900000,ESPAÇO UFBA,(74) 36414792,(74) 36411958,uabpoloirece@gmail.com,NULL,NULL
1075,Capim Grosso,BA,-11.31218330,-40.00176400,CAPIM GROSSO - JARDIM ARAUJO,POLO DA UNIVERSIDADE ABERTA DO BRASIL EM CAPIM GROSSO,Rua Jacobina,0,Jardim Araújo,44695000,NULL,(74) 991032460,(74) 36511844,polouabcapimgrosso.2014@gmail.com,neidesun1@hotmail.com,NULL
542,Juína,MT,-11.39934610,-59.47209040,JUINA - SETOR DE SERVICOS,POLO UAB DE JUINA,Av. dos Jambos,1901,Centro,7832000,Casa da Cultura,(66) 35661567,(66) 996817478,uabpolojuina@gmail.com,rosangelaap09@hotmail.com,NULL
1082,Rio Real,BA,-11.54381850,-37.93607550,RIO REAL - ESTADUAL,ESCOLA MUNICIPAL DJALMA FARIA DE OLIVEIRA,Loteamento Bela Vista,0,Centro,48330-00,NULL,(75) 34261994,(75) 98403596,semedrioreal@yahoo.com.br,mazinho.governo@rioreal.ba.gov.br,NULL
421,Conceição do Coité,BA,-11.55766760,-39.27910110,CONCEICAO DO COITE - CENTRO,POLO UAB DE CONCEICAO DO COITE - BA.,Rua Maximino Madureira,0,Centro,48730000,Escola Estadual Olgarina Pitangueira Pinheiro,(75) 32622052,(75) 991627166,polouabcoite@gmail.com,vero.coite@hotmail.com,http://uabconceicaodocoite.blogspot.com/
717,Serrinha,BA,-11.649988,-39.006677,SERRINHA - GINASIO,ESCOLA ESTADUAL LEOBINO CARDOSO RIBEIRO,Avenida Luís Viana Filho,1041,Ginásio,48700000,Junto à Escola Estadual Leobino Cardoso Ribeiro,(75) 32618609,(75) 32612472,nilson70@gmail.com,irene.cazorla@educacao.ba.gov.br,NULL
33,Piritiba,BA,-11.70887120,-40.59405650,PIRITIBA - CENTRO,POLO UAB DE APOIO PRESENCIAL DE PIRITIBA - BA,Praça Professor Luis Rogério,0,Centro,44830000,NULL,(),(74) 36282013,ABIMAELGAMA@HOTMAIL.COM,NULL,NULL
489,Gurupi,TO,-11.72837520,-49.06860830,GURUPI - ZONA RURAL,"POLO DE EDUCACAO A DISTANCIA, NO MUNICIPIO DE GURUPI","Rua Badejós, Lote 7, Chácara",69/72,Zona Rural,77402970,Campus Gurupi,(63) 33113509,(63) 999767790,uabgurupi@seduc.to.gov.br,NULL,NULL
446,Dianópolis,TO,-11.73192730,-46.90283750,DIANOPOLIS - CENTRO,POLO DE APOIO PRESENCIAL PARA O DESENVOLVIMENTO DO SUDESTE DO TOCANTINS,Praça Aurélio Antonio Araújo,2,Centro,77300000,NULL,(63) 36921137,(63) 84134013,uabdianopolis@tecnologia.to.gov.br,celabilio@yahoo.com.br,NULL
214,Rolim de Moura,RO,-11.73753850,-61.79412320,ROLIM DE MOURA - CIDADE ALTA,CENTRO DE FORMACAO TECNOLOGICO DA ZONA DA MATA ANCILA ANA TONATTO - UAB,Avenida São Paulo,4679,Beira Rio,76940000,Escola Estadual Tancredo de Almeida - Anexo I,(69) 84243962,(69) 84256735,uabsecretaria@hotmail.com,valdety_oliveira@hotmail.com,NULL
24,Ipupiara,BA,-11.81890580,-42.43316240,IPUPIARA - CENTRO,POLO UAB - IPUPIARA,Rua Aurora,5,Centro,47590000,NULL,(77) 36461114,(77) 991617303,uabipupiara@hotmail.com,zregina2014@gmail.com,NULL
23,Esplanada,BA,-11.85881870,-37.85123090,ESPLANADA - CENTRO,POLO UAB - ESPLANADA,Praça Nossa Senhora da Pompeia,172,Centro,48370000,Anexo a Escola Antonio Magalhães,(75) 34271309,(75) 34271486,poloesplanada@gd.com.br,rosanacardial@gmail.com,NULL
816,Pintadas,BA,-11.89337100,-39.94015500,PINTADAS - CENTRO,POLO UAB PINTADAS,Rua Dom Mathias Schimit,0,Centro,44610000,Escola Municipal Zilda Dias da Silva,(75) 36932146,(75) 998917905,uab.pintadas@educ.ba.gov.br,manoell10@yahoo.com.br,NULL
31,Mundo Novo,BA,-11.94301560,-40.51271420,MUNDO NOVO - CENTRO,POLO UAB MUNDO NOVO,Rua Jose Carlos da Mota,0,Centro,44800000,NULL,(74) 36262764,(),polo.mundonovo@gmail.com,leydjauabmn@gmail.com,NULL
1087,Ipirá,BA,-12.18806540,-39.73433800,IPIRA - SETE DE JULHO,POLO UNIVERSIDADE ABERTA DO BRASIL – UAB IPIRA-BA,Rua Manuel Oliveira e Silva,147,Sete de Julho,44600-00,Campus Universitario,(75) 32543126,(),educacaoipira@ig.com.br,NULL,NULL
1123,Teodoro Sampaio,BA,-12.23862680,-38.60053280,TEODORO SAMPAIO - CENTRO,POLO TEODORO SAMPAIO,Av Castelo Branco,0,Centro,44280-00,NULL,(75) 88644974,(75) 88096961,ailton.mtecnica@yahoo.com.br,desenvolveteodoro@yahoo.com.br,NULL
868,Taguatinga,TO,-12.38492910,-46.59333820,TAGUATINGA - SETOR NORTE,POLO DE EDUCACAO A DISTANCIA DE TAGUATINGA,"Quadra 32, Rua 11",1,Setor Norte,77320000,Centro de Ensino Laura do Carmo,(63) 32186170,(),uabtaguatinga@seduc.to.gov.br,NULL,NULL
857,Alvorada,TO,-12.43018570,-49.12214140,ALVORADA - CENTRO,POLO DE EDUCAçãO A  DISTâNCIA DE ALVORADA,Av. Peixe,7,Centro,77480000,Jorge Figueiras,(63) 33532481,(63) 99658864,uabalvorada@seduc.to.gov.br,NULL,NULL
684,Santo Estêvão,BA,-12.47542520,-39.25832930,SANTO ESTEVAO - CENTRO,POLO DE APOIO PRESENCIAL -UAB  SANTO ESTEVAO-BA,Rua Desembargador Felinto Bastos,0,Centro,44190000,Fundos da Escola Dr. Edvaldo Boaventura,(75) 32752289,(),durgecardoso@yahoo.com.br,durgematos@gmail.com,NULL
30,Mata de São João,BA,-12.47787060,-38.12659160,MATA DE SAO JOAO - CENTRO,MARIA ODÍLIA VASCONCELOS,RUA MARECHAL DEODORO,36,CENTRO,48280000,NULL,(71) 999764796,(71) 82032804,polomatadesaojoao@outlook.com,magdascruz@gmail.com,NULL
714,Seabra,BA,-12.54446810,-41.84020540,SEABRA - CENTRO,CENTRO EDUCACIONAL DE SEABRA - POLO UAB 18- SEABRA,Av. Franklin de Queiroz,595,Centro,46900000,NULL,(75) 33311494,(75) 33311290,polouabseabraba@gmail.com,eldynnarosa@yahoo.com.br,NULL
509,Itaberaba,BA,-12.54774920,-40.22712430,ITABERABA - CENTRO,UAB POLO ITABERABA,Avenida Rio Branco,367,Centro,46880000,Antiga Escola Castro Cincurá,(75) 32516644,(),uab11itaberaba.ba@gmail.com,uabpoloitaberaba@gmail.com,NULL
32,Paratinga,BA,-12.58964710,-43.09716250,PARATINGA - SAO JOAO,POLO DA APOIO PRESENCIAL - PARATINGA - UAB,Rua São João,0,São João,47500-00,Próximo a BR,(77) 36642279,(77) 36642068,polouabparatinga@hotmail.com,aritanamartins2@hotmail.com,NULL
22,Dias d´Ávila,BA,-12.60932210,-38.30603210,DIAS D'AVILA - NOVA DIAS D'AVILA,POLO UAB - DIAS D'AVILA,Rua Cajahiba,221,Nova Dias D'ávila,42850-00,NULL,(71) 36252785,(71) 99334439,uab.diasdavila@cead.ufop.br,pfg.gonzaga@gmail.com,NULL
212,Chupinguaia,RO,-12.62165160,-60.86093580,CHUPINGUAIA - CENTRO,POLO UAB - CHUPINGUAIA,Silvana Gonçalves,1492,Centro,76990000,NULL,(69) 33461107,(69) 33461787,uab.chupinguia@hotmail.com,uab.chuoinguai@gmail.com,NULL
317,Arraias,TO,-12.67706010,-46.98051030,ARRAIAS - CENTRO,POLO UAB - ARRAIAS,Av. Universitária,0,Centro,77330000,Universidade Federal de Tocantins em Arraias,(63) 36531501,(),NULL,NULL,NULL
20,Camaçari,BA,-12.69584420,-38.32138160,CAMACARI - BAIRRO DO NATAL,POLO UAB - CAMACARI,Cidade do Saber,0,Do Natal,4280000,Rua do Telegrafo,(71) 36449839,(71) 36449839,polocamacari@gmail.com,danimil82@yahoo.com.br,NULL
1125,Sapeaçu,BA,-12.73455200,-39.22715880,SAPEACU - CENTRO,POLO SAPEACU,Rua da Vitória,0,Centro,44230-00,NULL,(75) 36272136,(75) 36272108,jovivallucas@uol.com.br,NULL,NULL
37,Simões Filho,BA,-12.77007160,-38.42188490,SIMOES FILHO - CIA I,POLO UAB-SIMOES FILHO,Praça vinte e um de abril,0,cia I,43700000,NULL,(71) 33960247,(71) 988730073,uabsimoesfilho@gmail.com,veraburi@hotmail.com,NULL
29,Lauro de Freitas,BA,-12.85284380,-38.32711120,LAURO DE FREITAS - JOQUEI CLUB - PITANGA,POLO UAB - LAURO DE FREITAS,RUA DOS VEREADORES,0,JOQUEI CLUB - PITANGA,41700000,NULL,(71) 32873319,(),uablfreitas@gmail.com,NULL,NULL
1158,Salvador,BA,-12.868056,-38.473017,SALVADOR - PERIPERI,Polo UAB de Salvador - Periperi,Rua Barbosa Rosalvo Romeo,0,PERIPERI,40000990,NULL,(71) 33380056,(71) 92453619,coordenacaopolosuabbahia@gmail.com,NULL,NULL
118,Ribeirão Cascalheira,MT,-12.93024940,-51.51500770,RIBEIRAO CASCALHEIRA - SETOR INDUSTRIAL,POLO RUI BARBOSA - RIBEIRAO CASCALHEIRA - UAB,Av. Padre Joao Bosco,2918,Setor Industrial,78765-00,NULL,(66) 34892305,(),uabpoloribcasc@gmail.com,NULL,NULL
560,Lucas do Rio Verde,MT,-12.96526510,-56.11422530,LUCAS DO RIO VERDE - JARDIM PRIMAVERA,LUCAS DO RIO VERDE-MT,Rua Cedro,61,Jardim Primavera,78455000,S - Escola Municipal Vinícius de Moraes,(65) 35482327,(),uablrv@gmail.com,uabpololucasdorioverde@gmail.com,NULL
724,Sorriso,MT,-12.97875000,-55.66896360,SORRISO - CENTRO,SORRISO,Av. Brasil,850,Centro,78890000,Escola Municipal Professora Ivete Lourdes Arenhardt,(66) 39075599,(66) 39075597,uab.sorriso@hotmail.com,professorwelton@.com,NULL
302,Amargosa,BA,-13.04798930,-39.63116880,AMARGOSA - CENTRO,POLO UAB - AMARGOSA,Rua Gilda Ferreira,307,centro,4500000,NULL,(75) 36341030,(75) 36343977,uab@amargosa.ba.gov.br,uabamargosa@hotmail.com,NULL
1008,Comodoro,MT,-13.21316100,-59.65644940,COMODORO - NOVA VACARIA,POLO COMODORO,Rua José Laurindo Camilo,353-S,Nova Vacaria,78310000,NULL,() 32831472,(65),semeccdo@bol.com.br,NULL,NULL
808,Macaúbas,BA,-13.23080590,-42.78575830,MACAUBAS - ALTO ALEXANDRINO,POLO UAB MACAUBAS,Rua Veredinha,0,Alto do Alexandrino,46500000,Antigo Colegio Manuel Amancio,(77) 34731833,(77) 34731381,jonaldosilva@yahoo.com.br,uab.macaubas@educ.ba.gov.br,NULL
19,Bom Jesus da Lapa,BA,-13.27861540,-43.25215070,BOM JESUS DA LAPA - AMARALINA,POLO DE APOIO PRESENCIAL DE BOM JESUS DA LAPA,Rua Dr. Josefino Moreira Castro,0,Amaralina,47.60000,NULL,(77) 34810923,(77) 999996933,uab.lapa@gmail.com,elianelapa@gmail.com,NULL
998,Sapezal,MT,-13.54799050,-58.82038500,SAPEZAL - CENTRO,POLO DE SAPEZAL,Rua do Cascudo,1049,Centro,78365000,Esquina com a Avenida Dourado,(65) 33831141,(),uab@sapezal.mt.gov.br,NULL,NULL
1199,Canarana,MT,-13.555755,-52.264898,CANARANA - CENTRO,Polo UAB de Canarana,Avenida Rio Grande do Sul,0,Centro,78640000,NULL,(66) 34781600,(66) 96582282,uabcanarana@outlook.com,NULL,NULL
1010,Cavalcante,GO,-13.67734910,-47.60616250,CAVALCANTE - CENTRO,POLO UAB EM CAVALCANTE,Rua Guilhermino Magalhães - Quadra 27,228,Centro,73790-00,Casa do Aprendiz,(62) 34941393,(),polouabcavalcantego@gmail.com,NULL,NULL
536,Jequié,BA,-13.85251280,-40.07876480,JEQUIÉ - CAMPO DO AMÉRICA,POLO DE APOIO PRESENCIAL RIO DAS CONTAS DA UNIVERSIDADE ABERTA DO BRASIL,Rua Manoel Vitorino,566,Campo do América,45203165,Anexo ao prédio da secretária de educação,(73) 35278570,(),fagulopes@hotmail.com,NULL,NULL
997,Água Boa,MT,-13.93989710,-52.44654740,AGUA BOA - TROPICAL,POLO DE AGUA BOA,Rua 1,2301,Jardim Tropical,78635000,NULL,(66) 34686400,(),uabaguaboa@hotmail.com,NULL,NULL
21,Carinhanha,BA,-14.01195930,-43.86732220,CARINHANHA - CENTRO,POLO UAB - POLO EDUCACIONAL DONA CARMEN/CARINHANHA,Praça do Educandario,1,Centro,46445000,Proximo a praça Beira Rio,(77) 34852803,(),uabpolocarinhanha@yahoo.com.br,NULL,BA
444,Diamantino,MT,-14.06399120,-57.01116810,DIAMANTINO - MT 240,POLO DE APOIO PRESENCIAL DO MUNICIPIO DE DIAMANTINO/MT,Rodovia Senador Roberto Campos,0,MT 240,78400000,Saída para Alto Paraguai - Antiga Escola Agrícola,(),(65) 99815341,polouab2013@yahoo.com.br,carladrianarossi@yahoo.com.br,NULL
359,Brumado,BA,-14.19686140,-41.68097240,BRUMADO - TANQUE,POLO DA UAB EM BRUMADO,Rua Antonio Carlos Magalhaes,0,do Tanque,46100000,NULL,(77) 34412404,(77) 34412195,uab_brumado@brumado.ba.gov.br,NULL,NULL
75,Alto Paraíso de Goiás,GO,-14.20922790,-47.68490070,ALTO PARAISO DE GOIAS - CENTRO,POLO UAB ALTO PARAISO DE GOIAS,Rua São Jorge Quadra 26 Parte da APM,0,Centro,73770000,NULL,(62) 34461371,(62) 34462053,coord.uab.alto.go@gmail.com,martauabunb@gmail.com,NULL
650,Posse,GO,-14.22632400,-46.43930540,POSSE - CENTRO,POLO UAB - POSSE-GO,Rua Antonio Marques Gouveia,89,Centro,73900000,NULL,(62) 34814060,(62) 996694289,cidamello@yahoo.com.br,polouabposse@yahoo.com.br,NULL
747,Uruaçu,GO,-14.39456410,-49.08171240,URUACU - CENTRO,POLO DE APOIO PRESENCIAL UAB DE URUACU - GO,R. Coronel Aristides de Freitas,0,centro,76400-00,Quadra 9 - lotes 22-28,(62) 33576687,(62) 33571500,uab.polouruacu@hotmail.com,marciamendes.polouab.uruacu@gmail.com,NULL
1161,Niquelândia,GO,-14.472605,-48.460854,NIQUELÂNDIA - CENTRO,Polo UAB de Niquelândia,Rua Itabaiana,2,Centro,76420000,Quadra U Lt 01,(62) 33541571,(62) 96565514,polouabniquelandia@gmail.com,NULL,NULL
1007,Arenápolis,MT,-14.50621580,-56.85360080,ARENAPOLIS - VILA NOVA,POLO ARENAPOLIS,Rua Castelo Branco,0,Vila Nova,78420000,NULL,(65) 33431465,(),marcyapp@hotmail.com,NULL,NULL
598,Nova Xavantina,MT,-14.56234230,-52.44654740,NOVA XAVANTINA - JARDIM ALVORADA,POLO EDUCACIONAL DE APOIO PRESENCIAL UAB NOVA XAVANTINA,Rua Oscar Niemayer,185,Jardim Alvorada,78690000,NULL,(66) 34382115,(),polouabnx@hotmail.com,polouabnx@yahoo.com.br,NULL
492,Ibicuí,BA,-14.74884320,-39.94015500,IBICUI - CENTRO,UNIVERSIDADE ABERTA DO BRASIL - POLO DE IBICUI,Av. Lomanto Júnior,0,Centro,45290-00,NULL,(73) 32722294,(),uab2_ibicui@hotmail.com,NULL,NULL
28,Jacaraci,BA,-14.77314020,-42.27568610,JACARACI - CENTRO,POLO DE APOIO PRESENCIAL DA UNIVERSIDADE ABERTA DO BRASIL - JACARACI - BAHIA,Av. Mozart Davide S/N,0,Centro,46310000,NULL,(77) 34662155,(77) 34662026,POLOUAB.JACARACIBA@GMAIL.COM,coqui.kok@hotmail.com,NULL
510,Itabuna,BA,-14.78803270,-39.27841780,ITABUNA - LOMANTO JUNIOR,POLO UAB ITABUNA/BA,Av. J.S. Pinheiro,0,Lomanto Júnior,45600-01,Prédio do Colégio Modelo Luis Eduardo Magalhães,(73) 36132980,(),polouab.itabuna@educacao.ba.gov.br,polouabitabuna@gmail.com,NULL
498,Ilhéus,BA,-14.79350510,-39.04637970,ILHEUS - MALHADO,POLO UAB - ILHEUS,Rua epitácio Pessoa,42,cENTRO,45659050,NULL,(73) 36341747,(73) 36344001,polouabilheus@gmail.com,monteiroilheus@gmail.com,http://polouabilheus.blogspot.com
762,Vitória da Conquista,BA,-14.856536,-40.830452,VITORIA DA CONQUISTA - RECREIO,POLO UAB VITORIA DA CONQUISTA,Rua Sifredo Pedral Sampaio,0,Recreio,45020190,NULL,(77) 34213692,(77) 34218653,uab22conquista@gmail.com,ssantos_nte16@yahoo.com.br,http://uab22conquista.blogspot.com/
117,Primavera do Leste,MT,-15.03756590,-54.17200410,PRIMAVERA DO LESTE - CENTRO,POLO UAB - PRIMAVERA DO LESTE,Av. Porto Alegre,30,Centro,78850000,NULL,(66) 34986808,() 34982716,uabpoloprimavera@gmail.com,NULL,NULL
330,Barra do Bugres,MT,-15.09933940,-57.37225450,BARRA DO BUGRES - CENTRO,POLO DE APOIO PRESENCIAL DE BARRA DO BUGRES,Av. Deputado Hitler Sansão,820,NULL,78390000,NULL,(65) 33612483,(65) 33612132,uabpolobbug@gmail.com,v.oenning@hotmail.com,NULL
80,Goianésia,GO,-15.31788330,-49.16259890,GOIANESIA - SANTA LUZIA,POLO DE APOIO PRESENCIAL DA UAB DE GOIANESIA,Rua 37,354,Santa Luzia,76380000,Colégio Esatual Salvador Leite,(62) 39351104,(),polouabgoianesiago@gmail.com,NULL,NULL
1009,Campo Verde,MT,-15.32388120,-54.87312190,CAMPO VERDE - CENTRO,POLO DE CAMPO VERDE,Avenida Ayrton Senna,1201,Jardim Campo Verde I,78840000,Centro Educacional Paulo Freire,(66) 34194005,(66) 34193801,educacao@campoverde.mt.gov.br,neitv@hotmail.com,NULL
518,Itapetinga,BA,-15.34259210,-40.02228640,ITAPETINGA - CENTRO,PREDIO ESCOLAR JOSE VAZ ESPINHEIRA,Rua Visconde do Rio Branco,0,Centro,45700000,NULL,(77) 32611784,(77) 32613185,uabitapetinga@gmail.com,jusci_jesus@hotmail.com,NULL
535,Jauru,MT,-15.37761370,-58.87478650,JAURU - CRUZEIRO,POLO UAB DE JAURU - MT,Avenida Padre Nazareno Lanciotti,1820,Cruzeiro,78255000,Núcleo Pedagogico de Jauru-UNEMAT-CEAD,(65) 32441723,(65) 32441080,robertojauru3@gmail.com,coord.jauru.dead@unemat.br,NULL
888,Jussara,GO,-15.45417620,-51.43095820,JUSSARA - SAO FRANCISCO,POLO DE APOIO PRESENCIAL EM JUSSARA,Rua W3 esquina Almirante Barroso,0,São Francisco,76270-00,ao lado da Escola Estadual Colégio Dom Bosco,(62) 33733503,(62) 33731552,polouabjussara2013@hotmail.com,kelly.silva@seduc.go.gov.br,NULL
103,Januária,MG,-15.48302390,-44.38383110,JANUARIA - VILA FATIMA,POLO UAB - JANUARIA,Rua do Sertanejo,212,Vila Fátima,39480000,Prédio da UNIMONTES,(),(38) 36214559,uabpjanuariamg@yahoo.com.br,ceciliaprof43@yahoo.com.br,NULL
90,Buritis,MG,-15.52624940,-46.67053400,BURITIS - VEREDAS,POLO UNIVERSITARIO DE BURITIS,Rua Ouro preto,211,Bairro Veredas,38660-00,NULL,(38) 36623469,(38) 36623041,poloburitis@gmail.com,editesbrito@hotmail.com,NULL
79,Formosa,GO,-15.54464420,-47.34521190,FORMOSA - ABREU,POLO DE APOIO PRESENCIAL DO MUNICIPIO DE FORMOSA - UAB,Praça 21 de abril,60,Abreu,73803025,NULL,(61) 36311395,(61) 36311069,polouabformosa@hotmail.com,NULL,NULL
82,Uruana,GO,-15.57741560,-49.65031060,URUANA - CENTRO,POLO UAB DE URUANA-GO,Rua 13,0,Centro,76335-00,Secretaria Municipal de Educação,(62) 33441916,(),polouaburuana@gmail.com,semecuruana@gmail.com,NULL
116,Pontes e Lacerda,MT,-15.58044350,-59.38001050,PONTES E LACERDA - CENTRO,POLO UAB - PONTES E LACERDA,Avenida Bom Jesus,643,Centro,78250000,escola,(65) 32661477,(65) 32663565,uab_pl@hotmail.com,NULL,NULL
438,Cuiabá,MT,-15.60399900,-56.10772990,CUIABA - CENTRO-SUL,UAB Polo Cuiabá,Rua Comandante Costa,1927,Centro-Sul,78025200,NULL,(65) 36243631,(65) 36378426,uab.polocuiaba@gmail.com,elizabete.rosseto@seduc.mt.gov.br,NULL
1127,Rio Pardo de Minas,MG,-15.613613,-42.539252,RIO PARDO DE MINAS - CENTRO,POLO UAB RIO PARDO DE MINAS,Avenida Rafael Bastos Pereira,59,Centro,39530000,Próximo ao Forum,(38) 38241520,(),smerpm@hotmail.com,NULL,NULL
533,Janaúba,MG,-15.72881130,-43.40666180,JANAUBA - VEREDAS,POLO JANAUBA,Rua Manuel Bandeira,460,Veredas,39440000,Prédio do CAIC,(38) 38213378,(38) 38214957,educacao@janauba.mg.gov.br,ARMANDOLINHARES@ZIPMAIL.COM.BR,NULL
73,Águas Lindas de Goiás,GO,-15.74603580,-48.29909800,AGUAS LINDAS DE GOIAS - MANSOES OLINDA,POLO UAB - AGUAS LINDAS DE GOIAS,Rua 13 - Quadra A1 lote 02,2,Mansões Olinda,72910000,NULL,(00) 00000000,(),uabaguaslindas@gmail.com,profrogedu@yahoo.com.br,NULL
948,Taiobeiras,MG,-15.77030210,-41.99897180,TAIOBEIRAS - NOSSA SENHORA DE FATIMA,POLO UAB TAIOBEIRAS,Av. Nossa Senhora de Fatima 530,NULL,NULL,39550000,NULL,(38) 38451919,(38) 38451820,leasucupyra@hotmail.com,gabinete@taiobeiras.mg.gov.br,NULL
477,Goiás,GO,-15.82724320,-50.26566200,GOIAS - ALTO DO SANTANA,POLO DE EDUCACAO A DISTANCIA VILA BOA DE GOIAS,Rua Vereador Hugo Argenta,0,Alto Santana,76600-00,NULL,(62) 33714061,(),polouabgoias@hotmail.com,elietecampos@hotmail.com,NULL
695,São João da Ponte,MG,-15.90841050,-43.86732220,SAO JOAO DA PONTE - INDUSTRIAL,POLO DA UAB-SAO JOAO DA PONTE,Travessa Antonio Magalhães,29,Centro,39430000,Sec. Municipal de Cultura,(38) 32341097,(38) 32341635,uabsjp@yahoo.com.br,NULL,NULL
623,Pedra Azul,MG,-15.92804170,-41.16025970,PEDRA AZUL - CENTRO,POLO UAB - DR. GILBERTO ANTUNES DE ALMEIDA,Avenida Dr Anthero de Lucena Ruas,525,Centro,39970000,NULL,(33) 37513339,(33) 37511058,uabpa09@gmail.com,leletecb@hotmail.com,NULL
1191,Santo Antônio do Descoberto,GO,-15.945163,-48.261957,SANTO ANTÔNIO DO DESCOBERTO - CENTRO,Polo UAB de Santo Antônio do Descoberto,Entre-quadras 41/42,0,Centro,72900000,NULL,(61) 36263314,(61) 84735699,ascomprefeiturasad2@gmail.com,marly1gf@yahoo.com.br,NULL
748,Urucuia,MG,-16.04549320,-45.52519820,URUCUIA -  CENTRO,POLO UAB DE URUCUIA,"Rodovia MG-202, KM 120",0,Centro,39315000,NULL,(38) 36349249,(38) 36349043,polourucuiauab@gmail.com,smeurucuia@yahoo.com.br,NULL
107,Salinas,MG,-16.08022420,-42.11773960,SALINAS - CENTRO,POLO DE APOIO PRESENCIAL DO SISTEMA UAB - SALINAS,Praça Dr. Morais,14,Centro,39560000,Praça,(38) 38414754,(38) 991379633,polo.uab.salinas@gmail.com,marcosleaomatos@gmail.com,NULL
74,Alexânia,GO,-16.08213610,-48.50743070,ALEXANIA - FAZENDA CACHOEIRA,"POLO UAB - ALEXANIA ""CORA CORALINA"",""GO 139 KM 2 - Fazenda Cachoeira",0,Zona Rural de Alexânia,72930-00,Escola Municipal Agrícola Lothar Schiller,(),(),uab.alexania@gmail.com,NULL,portal.alexania.go.gov.br/polouab,
296,Almenara,MG,-16.09713660,-40.75640020,ALMENARA - CENTRO,POLO ALMENARA,Rua Avelino Nascimento,13,Centro,39900-00,NULL,(33) 37216279,(),uabalmenara2008@yahoo.com.br,campus.almenara@unimontes.br,NULL
1139,Brasília de Minas,MG,-16.212537,-44.433565,BRASILIA DE MINAS - CENTRO,PÓLO EAD/UAB – BRASILIA DE MINAS,Av. Rui Barbosa,265,Centro,39330-00,Próximo ao Forum,(38) 32312304,(),brasiliademinas@ead.unimontes.br,poloead.uab.bm@gmail.com,NULL
501,Inhumas,GO,-16.30622090,-49.48728580,INHUMAS - VILA HEITOR,POLO DE APOIO PRESENCIAL DA UAB INHUMAS,Rua 05,153,Vila Heitor,75400-00,Praça João Heitor de Paula,(62) 35144389,(62) 35111852,polouabinhumas09@gmail.com,lupessoni@gmail.com,NULL
303,Anápolis,GO,-16.33556130,-48.94525660,ANAPOLIS - JUNDIAI,POLO ANAPOLIS,Avenida São Francisco,880,Jundiaí,75110810,Centro de referência e Formação do Profissionais da Educação,(62) 39021458,(62) 39021183,uabanapolis@gmail.com,eunicemmk@gmail.com,NULL
472,Francisco Sá,MG,-16.42982620,-43.56069460,FRANCISCO SA - CENTRO,FRANCISCO SA,Rua João Catulino de Andrade,748,Centro,39580000,NULL,(38) 32331765,(38) 32332193,polouabfranciscosa@yahoo.com.br,NULL,NULL
1150,Jequitinhonha,MG,-16.43279,-41.003227,JEQUITINHONHA - CENTRO,CVT/ JEQUITINHONHA,Rua Coronel Ramiro Pereira,228,Centro,39960000,Próximo a Prefeitura Municipal de Jequitinhonha,(33) 37411499,(33) 37411312,jequitinhonha@uaitec.mg.gov.br,polouabjequitinhonha@gmail.com,NULL
965,Cáceres,MT,-16.57905060,-57.82539500,CACERES - MARACANAZINHO,POLO DE CACERES,Rua  das Saracuras,0,Maracanazinho,78200000,NULL,(65) 32234542,(65) 32237537,coord.caceres.dead@unemat.br,leilatuim14@gmail.com,NULL
624,Pedra Preta,MT,-16.622736,-54.468493,PEDRA PRETA - CENTRO,POLO DE APOIO PRESENCIAL PARA O SISTEMA UNIVERSIDADE ABERTA-UAB DE PEDRA PRETA,Avenida Frei Servácio,68,Centro,78795-00,União de Cursos de Pedra Preta - UNIPEDRA,(66) 34862197,(),danielleloana@hotmail.com,polouab.pedrapreta@outlook.com,NULL
76,Aparecida de Goiânia,GO,-16.68689120,-49.26479430,APARECIDA DE GOIANIA - VILA BRASILIA,CENTRO MUNICIPAL DE EDUCACAO PROFISSIONAL - APARECIDA DE GOIANIA - UAB,"Av. Rudá esquina com Rua Pindorama, quadra 37 A Lote 1/2",0,Vila Brasilia,74950760,NULL,(62) 35454818,(62) 35454817,marleneuabaparecidagyn@gmail.com,cmepuab@gmail.com,NULL
950,Montes Claros,MG,-16.69513740,-43.84379370,MONTES CLAROS - JK,POLO MUNICIPAL UAB DE MONTES CLAROS,Rua Republica do Uruguai,66,JK,39404-02,NULL,(38) 30831172,(38) 98112512,marciatfrota@gmail.com,polomontesclaros@gmail.com,NULL
434,Cristália,MG,-16.73056640,-42.82478770,CRISTALIA - CENTRO,POLO UAB DE CRISTALIA,Av. Teodomiro Borges,0,Planalto,39598000,NULL,(38) 32321103,(38) 32321113,uabpolocristalia@ig.com.br,albuquerquecelia@ig.com.br,NULL
86,Araçuaí,MG,-16.97757460,-41.99897180,ARACUAI - CENTRO,CAED - ARACUAI - UAB,Praça Olegario Maciel,32,Centro,39600000,NULL,(33) 37314447,(),poloaracuai@yahoo.com.br,NULL,NULL
921,Águas Formosas,MG,-17.03446170,-40.99905970,AGUAS FORMOSAS - CENTRO,POLO UAB DE APOIO PRESENCIAL DE AGUAS FORMOSAS,Travessa São Pedro,185,centro,39880000,Escola Municipal São Vicente de Paulo,(33) 36112404,(),agnescristhina.26@gmail.com,NULL,NULL
926,Padre Paraíso,MG,-17.04901080,-41.56124230,PADRE PARAISO - CORONEL OLINTO VIEIRA,POLO UAB DE APOIO PRESENCIAL DE PADRE PARAISO,Rua do Clube,0,Coronel Olinto Vieira,39818-00,NULL,(33) 35341112,(),towikkrull@yahoo.com.br,polo.padreparaiso@ead.ufvjm.edu.br,NULL
25,Itamaraju,BA,-17.06569650,-39.73433800,ITAMARAJU - JAQUEIRA,POLO UAB - ITAMARAJU,RUA IRMAOS ANDRADA 1635,1635,JAQUEIRA,45836000,3 ANDAR DO COLEGIO ESTADUAL MODELO,(73) 32943625,(),polouabitamaraju@yahoo.com.br,deliaeducadora@gmail.com,não tem
26,Itanhém,BA,-17.06579420,-40.39048800,ITANHEM - SAO JOAO,CENTRO DE EDUCACAO ABERTA E A DISTANCIA DE ITANHEM - CEADI,Rua Nova Venécia,0,São João,45970000,NULL,(73) 988299620,(73) 32952262,denise.itanhem.uab@gmail.com,uab.itanhem@cead.ufop.br,NULL
78,Cezarina,GO,-17.08052230,-49.75243060,CEZARINA - CENTRO,CENTRO DE ENSINO SUPERIOR DE CEZARINA -UAB,R. Rui Barbosa,159,Centro,76195-00,Frente  agencia dos correios,(64) 35436015,(64) 81279079,polouabcezarina@gmail.com,ROSIMEYRE.UABCEZARINA-GO@BOL.COM.BR,NULL
1114,Bocaiúva,MG,-17.110458,-43.813876,BOCAIUVA - ALTEROSA,CAMPI UNIMONTES BOCAIUVA,Rua Dona Florinda Pires,83 A,Centro,39390-00,Ao Lado da Camara Municipal de Vereadores,(38) 32512136,(),campus.bocaiuva@unimontes.br,NULL,NULL
768,Buritizeiro,MG,-17.18851870,-45.14945050,BURITIZEIRO - JARDIM DOS BURITIS,BURITIZEIRO,Rua 20,101,Jardim dos Buritis,39280-00,NULL,(38) 37422198,(38) 37422198,uabburitizeiro@yahoo.com.br,giselleef@gmail.com,NULL
1135,Paracatu,MG,-17.238407,-46.883099,PARACATU - CENTRO,CVT/UAITEC – PARACATU,Avenida Aeroporto,255,Paracatuzinho,38600000,NULL,(38) 36790905,(),paracatu@uaitec.mg.gov.br,NULL,NULL
949,Turmalina,MG,-17.25601800,-42.82478770,TURMALINA - VILA NOVA,POLO UAB - ESCOLA FAMÍLIA AGROINDUSTRIAL DE TURMALINA - EFAT,Rua Agenor Godinho,0,Vila Nova,39660000,NULL,(38) 35271684,(),polo.turmalina@ead.ufvjm.edu.br,sme.tur@gmail.com,NULL
935,Minas Novas,MG,-17.31040250,-42.47245780,MINAS NOVAS - SANTA RITA,POLO UAB DE APOIO PRESENCIAL DE MINAS NOVAS,Rua Três,50,Santa Rita,39650000,NULL,(33) 37642208,(33) 37642449,pmmn@uai.com.br,adelson.apso@yahoo.com.br,NULL
299,Alto Araguaia,MT,-17.46406110,-53.47703590,ALTO ARAGUAIA - CENTRO,POLO DE ALTO ARAGUAIA,Rua Rio Branco,391,Centro,78780-00,NULL,(66) 34811667,(66) 34811731,coord.aaraguaia.dead@unemat.br,coord.aaraguaia.dead@unemat.br,NULL
811,Teixeira de Freitas,BA,-17.53422500,-39.72169190,TEIXEIRA DE FREITAS - SAO JOSE,POLO UAB TEIXEIRA DE FREITAS,Praça Joana Angélica,250,São José,45996-11,Prédio da Secretaria Municipal de Educação,(73) 30112701,(73) 30112709,educacaopmts@hotmail.com,uab.teixeiradefreitas@educ.ba.gov.br,NULL
1129,Várzea da Palma,MG,-17.598564,-44.732886,VARZEA DA PALMA - CENTRO,CVT/UAITEC VAZEA DA PALMA,Rua Doutor Antônio Gomes Pinto Coelho,1414,Centro,39260000,NULL,(38) 37311219,(),varzeadapalma@uatec.mg.gov.br,NULL,NULL
578,Mineiros,GO,-17.63645990,-52.78841710,MINEIROS - IORES,POLO UNIVERSITARIO DE MINEIROS - GO,Rua  Cabeceira Alta,0,Ióres,75830000,Quadra 20 Lote 08,(64) 36610021,(64) 99580926,uabmineiros@hotmail.com,NULL,NULL
391,Carlos Chagas,MG,-17.71781330,-40.87785860,CARLOS CHAGAS - CENTRO,POLO CARLOS CHAGAS,Travessa Braga,381,Centro,39864-00,NULL,(33) 36243043,(),francoedione@hotmail.com,NULL,NULL
1133,João Pinheiro,MG,-17.745977,-46.17059,JOAO PINHEIRO - CENTRO,CVT/ UAITEC JOAO PINHEIRO,Rua Frei Dionísio,93,Centro,38770000,NULL,(38) 35615487,(),joaopinheiro@uaitec.mg.gov.br,NULL,NULL
925,Nanuque,MG,-17.79055380,-40.43125840,NANUQUE - ROMILDA RUAS,POLO UAB DE APOIO PRESENCIAL DE NANUQUE,R. Governador Valadares,529,Romilda Ruas,39860000,Escola Stella Matutina,(33) 36211705,(),mirandamar29@yahoo.com.br,martinsr29@yahoo.com.br,NULL
515,Itamarandiba,MG,-17.83149870,-42.78575830,ITAMARANDIBA - FLORESTAL,POLO ITAMARANDIBA,Av. Jequitinhonha,298,Florestal,39670000,NULL,(38) 35213077,(38) 35211559,glaucia.oliveirasantos@gmail.com,glaucia.oliveirasantos@gmail.com,NULL
110,Teófilo Otoni,MG,-17.86000890,-41.50910420,TEOFILO OTONI - VILA SANTA CLARA,CENTRO DE APOIO A EDUCACAO A DISTANCIA - TEOFILO OTONI - UAB,Rua Aristóteles Dantas Guimarães,166,Vila Santa Clara,39802-03,NULL,(33) 35212260,(),poluabto@gmail.com,poluabto@hotmail.com,NULL
1053,Montanha,ES,-18.14173420,-40.26800750,MONTANHA - CENTRO,POLO UAB DE MONTANHA,Avenida Getúlio Vargas,436,Centro,29000-89,NULL,(27) 37542179,(27) 992453935,polouab.montanha@gmail.com,secemont@hotmail.com,NULL
77,Catalão,GO,-18.15544370,-47.95037660,CATALAO - JARDIM PRIMAVERA,POLO UAB - CATALAO,Rua das Violetas,100,Jardim Primavera,75712735,NULL,(64) 34422572,(64) 34113105,polocatalaouab@gmail.com,NULL,NULL
105,Lagamar,MG,-18.15577510,-46.74784930,LAGAMAR - CENTRO,ENSINO A DISTANCIA DANIEL VINICIUS SANTOS MOURA - LAGAMAR - UAB,Rua Ituiutaba,44,Bela Vista,38785000,NULL,(34) 38121247,(34) 92256437,uablagamar@cead.ufop.br,antonia.plaed@gmail.com,NULL
944,Diamantina,MG,-18.17599010,-43.71424840,DIAMANTINA - CENTRO,POLO DE APOIO PRESENCIAL DE EDUCACAO A DISTANCIA DE DIAMANTINA-MG,Rua da Glória,469,Centro,39100000,NULL,(38) 35319560,(),polo.diamantina@ead.ufvjm.edu.br,juarmachado@yahoo.com.br,NULL
1170,Três Marias,MG,-18.213071,-45.23514,TRÊS MARIAS - JOAQUIM DE LIMA,Polo UAB de Três Marias,Av. Camilo José de Freitas,1,Joaquim de Lima,39205000,NULL,(38) 37545669,(38) 99841915,cleonice-m-medeiros@hotmail.com,NULL,NULL
61,Ecoporanga,ES,-18.37725510,-40.71585700,ECOPORANGA - CENTRO,POLO UNIVERSITARIO DE APOIO PRESENCIAL DA UNIVERSIDADE ABERTA DO BRASIL DE ECOPORANGA,Rua José da Cruz,0,Centro,29850000,NULL,(27) 37551671,(27) 37551368,SUELI.UABECOPORANGA@GMAIL.COM,DIRETORAVIANA@HOTMAIL.com,NULL
67,Pinheiros,ES,-18.39586650,-40.18621290,PINHEIROS - CENTRO,CESP- CENTRO DE EDUCACAO SUPERIOR DE PINHEIROS - UAB,Rua: General Rondon,0,CENTRO,29980000,Bairro  Nova Canaã,(27) 37651692,(),uabpinheiros@hotmail.com,NULL,NULL
95,Coromandel,MG,-18.43645510,-47.21424170,COROMANDEL - SAO DOMINGOS,POLO DE APOIO PRESENCIAL UAB COROMANDEL,Rua Sebastião Lopes Pereira,264,São Domingos,38550000,Casa,(34) 38414344,(),polo.uab.coromandel@hotmail.com,coordenacaouabcoromandel@hotmail.com,NULL
59,Conceição da Barra,ES,-18.47858340,-39.85791180,CONCEICAO DA BARRA - CENTRO,POLO MUNICIPAL DE APOIO PRESENCIAL - CENTRO MUNICIPAL DE EDUCACAO ABERTA E A DISTANCIA DE CONCEICAO ,Rua Vidilino Matos de Lima,0,Centro,29000-96,Prédio da Cozinha Industrial,(27) 998781445,(27) 997489266,CEMEAD.CB@GMAIL.COM,MARLENE.MARLENSOFT@GMAIL.COM,NULL
94,Corinto,MG,-18.55474310,-43.82909880,CORINTO - CLARINDO DE PAIVA,CENTRO TECNOLOGICO EDUCACIONAL DE CORINTO - CETEC - CORINTO - UAB,Rua Risoleta Lima,1041,Clarindo de Paiva,39120000,NULL,(38) 37513359,() 37512878,cetec.uab@gmail.com,NULL,NULL
619,Patos de Minas,MG,-18.59016510,-46.51776480,PATOS DE MINAS - CENTRO,POLO UAB PATOS DE MINAS,Rua São Geraldo,0,Lagoinha,38701324,Escola Municipal Prefeito Jacques Corrêa da Costa,(34) 38229662,(34) 38229661,polouab@patosdeminas.mg.gov.br,arilsonelucia15@gmail.com,NULL
429,Costa Rica,MS,-18.61606480,-53.21804950,COSTA RICA - AREA RURAL,POLO DE APOIO PRESENCIAL PROF  ADENOCRE A. DE MORAIS -COSTA RICA,JOse Calazans da Silva,172,Area Rural,79550000,NULL,(67) 32471424,(67) 32474956,uabpolocostarica@yahoo.com.br,nomedeira@yahoo.com.br,NULL
87,Araguari,MG,-18.64943080,-48.20844340,ARAGUARI - FATIMA,POLO DE APOIO PRESENCIAL DE ARAGUARI - UAB,Praça Augusto Diniz,55,Fátima,38442-14,-,(34) 32462221,(34) 36903290,poloaraguari@gmail.com,NULL,NULL
596,Nova Venécia,ES,-18.695248,-40.392154,NOVA VENECIA - RUBIA,POLO MUNICIPAL DE APOIO PRESENCIAL DA UNIVERSIDADE ABERTA DO BRASIL  E CENTRO DE FORMACAO DE PROFESS,Rua 07 de Setembro,420,Rúbia,29830-00,NULL,(27) 37529028,(27) 999531827,nveneciauab@gmail.com,romulodelboni@hotmail.com,NULL
567,Mantena,MG,-18.70789420,-41.07971720,MANTENA - CENTRO,POLO DE APOIO PRESENCIAL,Rua Manoel Amâncio,171,Centro,35290000,Prédio junto a CESEC- Prefeito José Romário Duque,(33) 32411837,(),polomantena2008@yahoo.com.br,NULL,NULL
702,São Mateus,ES,-18.7224,-39.852557,SAO MATEUS - CARAPINA,POLO MUNICIPAL UAB DE SAO MATEUS,Rua Duque de Caxias,194-A,Carapina,29933-03,NULL,(27) 37638516,(27) 37631082,polouab_sm@yahoo.com.br,NULL,NULL
96,Divinolândia de Minas,MG,-18.74306370,-42.57056740,DIVINOLANDIA DE MINAS - CENTRO,"POLO UAB -"" PROFESSOR JOSE COELHO PERPETUO"" - DIVINOLANDIA DE MINAS -",Praça Professor Carvalhais,50,Centro,39735000,NULL,(33) 34141683,(),polodivinolandiauab@yahoo.com.br,NULL,NULL
98,Governador Valadares,MG,-18.85198140,-41.94651740,GOVERNADOR VALADARES - CENTRO,UAB - POLO DE APOIO PRESENCIAL DE EDUCACAO A DISTANCIA DE GOVERNADOR VALADARES,Rua 7 de Setembro,2479,Centro,35010-17,Escola Estadual Prefeito Joaquim Pedro Nascimento,(33) 32216716,(),uab.coord@valadares.mg.gov.br,uab.sec@valadares.mg.gov.br,NULL
64,Mantenópolis,ES,-18.88727170,-41.05956360,MANTENOPOLIS - CENTRO,POLO MUNICIPAL DE APOIO PRESENCIAL DE MANTENOPOLIS/ES  CEME@AD -CENTRO MUNICIPAL DE EDUCACAO ABERTA ,Av. Tiradentes,0,Centro,29770000,NULL,(27) 37582268,(27) 37581129,mpolodemantenopolis@yahoo.com.br,meripacheco@yahoo.com.br,página da rede Facebook sob Polo de Mantenópolis
742,Uberlândia,MG,-18.89453730,-48.26547970,UBERLANDIA - BRASIL,POLO DE APOIO PRESENCIAL DE UBERLANDIA -UAB,Av. Professor José Inacio de Souza,1958,BrASIL,38400732,NULL,(34) 32124363,(34) 32121177,uab.polo.uberlandia@gmail.com,secretaria.uab.polo.uberlandia@gmail.com,NULL
422,Conceição do Mato Dentro,MG,-18.94423690,-43.52223130,CONCEICAO DO MATO DENTRO - CENTRO,POLO UAB - CONCEICAO DO MATO DENTRO,Rua São Francisco,501,Bandeirinha,35860000,Localizado no Ginásio São francisco/SENAI,(31) 38682630,(),poloensino.uabcmd@gmail.com,NULL,NULL
81,São Simão,GO,-18.97505800,-50.55497190,SAO SIMAO - POPULAR,POLO UAB - SAO SIMAO,Rua 14 esquina com a rua 21 e 25,0,Popular,75890000,NULL,(64) 36582465,(64) 35539512,polouabsaosimao@gmail,iranisefreitas@gmail.com,NULL
946,Ituiutaba,MG,-18.97616960,-49.45890680,ITUIUTABA - CENTRO,POLO ITUIUTABA,Rua 26,425,Centro,38300080,NULL,(34) 32718204,(34) 32718205,uab_itba@yahoo.com.br,viviane.suzana@yahoo.com.br,NULL
371,Camapuã,MS,-19.09662220,-53.91065940,CAMAPUA - VILA DIAMANTINA,CENTRO DE APOIO PRESENCIAL DE CAMAPUA,Rua Ferreira da Cunha,200,Vila Diamantina,79420-00,NULL,() 32863333,(67),emconegundes@gmail.com,polouab@camapua.ms.gov.br,NULL
114,São Gabriel do Oeste,MS,-19.15136050,-54.52180740,SAO GABRIEL DO OESTE - ZONA RURAL,POLO DE APOIO PRESENCIAL DA UAB EM SAO GABRIEL DO OESTE,Estrada São Gabriel/Rio Negro,km 4,Area Rural,79490000,Caixa postal 117,(67) 32953033,(),funpesg.poloead@saogabriel.ms.gov.br,NULL,NULL
638,Pompéu,MG,-19.15774300,-44.92533540,POMPEU - PARAÍSO,POLO DE APOIO PRESENCIAL UAB-POMPEU,Rodovia MG - 164 Km63,0,Morada do Sol,35640000,NULL,(37) 35234414,(37) 991578389,uabpompeu08@yahoo.com.br,dorismaciel@hotmail.com,NULL
557,Linhares,ES,-19.38000180,-40.06244550,LINHARES - NOVO HORIZONTE,POLO UAB DE LINHARES,Avenida Presidente Costa e Silva,155,NOvo Horizonte,29902120,NULL,(27) 33737900,(),uab2linhares@gmail.com,deziere.az@gmail.com,NULL
526,Jaboticatubas,MG,-19.42591690,-43.67590490,JABOTICATUBAS - SAO VICENTE,UAB-POLO JABOTICATUBAS,Rua Joana Melo,1300,São Vicente,35830000,NULL,(31) 36831715,(),educacao@jaboticatubas.com,NULL,NULL
719,Sete Lagoas,MG,-19.44826820,-44.22019800,SETE LAGOAS - DISTRITO INDUSTRIAL,POLO DE APOIO PRESENCIAL DE SETE LAGOAS,Av. Prefeito Alberto Moura,1111,Distrito Industrial,35702-38,Escola Técnica Municipal de Sete Lagoas,(31) 37726289,(31) 37730424,uabslmg@gmail.com,contatouabslmg@yahoo.com.br,www.setelagoas.mg.gov.br
100,Ipatinga,MG,-19.50949240,-42.56274760,IPATINGA - BOM RETIRO,POLO UAB DE IPATINGA - UNIVERSIDADE ABERTA DO BRASIL,Rua Fernando de Noronha,490,Bom Retiro,35160225,Anexo à Escola Municipal Padre Cícero de Castro,(31) 38298334,(31) 38298369,uab.coordenacao@ipatinga.mg.gov.br,ipatinga.polo.uab@gmail.com,NULL
415,Colatina,ES,-19.53768960,-40.63433410,COLATINA - ESPLANADA,POLO-UAB/COLATINA,Rua Sergio Bernardino,0,Santa Terezinha,29702140,NULL,(27) 31777070,(),colatina.uab@gmail.com,NULL,NULL
734,Timóteo,MG,-19.53841800,-42.64744070,TIMOTEO - CENTRO NORTE,POLO UAB DE TIMOTEO,Alameda 31 de Outubro,405,Centro Norte,35180000,NULL,(31) 38477667,(),polouab.timoteo.mg@gmail.com,rairobson@oi.com.br,NULL
112,Água Clara,MS,-19.58639530,-53.21804950,AGUA CLARA - JARDIM DAS PALMEIRAS,POLO UAB - AGUA CLARA,Rua Alberico Barbosa de Souza,39,Jardim das Palmeiras,79680000,NULL,(67) 32393249,(67) 32391693,mfqac@hotmail.com,marcelosilvaead@hotmail.com,NULL
315,Araxá,MG,-19.59071250,-46.93230420,ARAXA - SANTA RITA,POLO UAB_ARAXA,Av Hítalo Ros,0,Santa Rita,38181419,Prédio do SESI/SENAI,(34) 36917043,(34) 36917110,uabpoloaraxa@araxaeduca.mg.gov.br,polouabaraxa@gmail.com,NULL
101,Itabira,MG,-19.63811130,-43.23097830,ITABIRA - AMAZONAS,POLO DE APOIO PRESENCIAL DE ITABIRA - UAB,Rua Jacutinga,15,Campestre I,35900086,Secretaria Municipal de Educação,(31) 38392670,(31) 38392657,polouab2013@gmail.com,NULL,NULL
548,Lagoa Santa,MG,-19.64453530,-43.88642260,LAGOA SANTA - SANTOS DUMONT,POLO LAGOA SANTA/MG,Av. Coronel Modestino Gonçalves,90,Santos Dumont,33400000,NULL,(31) 36872055,(),glaupi@hotmail.com,uabpololagoasanta@gmail.com,NULL
424,Confins,MG,-19.64653050,-43.97228160,CONFINS - CENTRO,CENTRO EDUCACIONAL E CULTURA/ESCOLA MUNIC.AFONSO JOSE DA SILVA,Rua Moura Rodrigues,730,Centro,33500000,NULL,(31) 36862116,(31) 36861320,educacao@confins.mg.gov.br,educonfins@hotmail.com,NULL
918,Bom Despacho,MG,-19.64993190,-45.22435780,BOM DESPACHO - ANA ROSA,POLO DO CENTRO OESTE DA UAB,"Avenida Ana Rosa, 1555",NULL,Ana Rosa,3560000,NULL,(37) 35213680,(37) 35213679,educacao@bomdespacho.mg.gov.br,semebomdespacho@hotmail.com,NULL
56,Baixo Guandu,ES,-19.65962950,-40.99905970,BAIXO GUANDU - CENTRO,POLO UAB - BAIXO GUANDU,Av. 10 de Abril,219,Centro,29730000,Centro Educacional Adventista,(27) 37322047,(27) 37324580,polouabbaixoguandu@gmail.com,NULL,NULL
392,Carneirinho,MG,-19.69915580,-50.76244930,CARNEIRINHO - CENTRO,CARNEIRINHO UAB,Av. Jose Ambrosio de Queiroz,850,Centro,38290000,NULL,(34) 34540241,(34) 34540244,polocarneirinhouab@gmail.com,emvlacar@yahoo.com.br,NULL
111,Uberaba,MG,-19.73444450,-47.92198520,UBERABA - MERCES,POLO DE APOIO DE PRESENCIAL DE UBERABA - UAB,Rua Manoel Brandão,110,Mercês,38060035,NULL,(34) 33223783,(34) 33223783,uab.polouberaba@gmail.com,NULL,NULL
502,Ipanema,MG,-19.76740380,-41.72082430,IPANEMA - CENTRO,POLO UAB DE IPANENA,Rua Santos Dumont,337,Centro,36950000,NULL,(33) 33141334,(33) 33143000,uabipanema@ipanema.mg.gov.br,educacao@ipanema.mg.gov.br,NULL
923,Caratinga,MG,-19.78100600,-42.13997870,CARATINGA - DARIO GROSSI,POLO UAB DE APOIO PRESENCIAL DE CARATINGA,Rua Maria Alice de Paula,300,Dario Grossi,35300430,-,(33) 33216336,(33) 98711300,polo@educ.caratinga.mg.gov.br,polocaratinga@gmail.com,NULL
55,Aracruz,ES,-19.82123640,-40.27178910,ARACRUZ - CENTRO,POLO DE APOIO PRESENCIAL DA UAB E CENTRO DE FORMACAO DE PROFESSORES JOSE MODENESE - ARACRUZ,Rua General Aristides Guaraná,23,Centro,29190050,NULL,(27) 32707470,(),uab.aracruz@gmail.com,coordenacaouab.acz@gmail.com,NULL
104,João Monlevade,MG,-19.82159200,-43.13813600,JOAO MONLEVADE - VILA TANQUE,POLO DE APOIO PRESENCIAL UAB - JOAO MONLEVADE,Wilson Alvarenga,830,Carneirinhos,35930001,Centro Educacional de João Monlevade,(31) 38521305,(),uab.joaomonlevade@cead.ufop.br,erica.cotta@oi.com.br,NULL
678,Santa Teresa,ES,-19.84869060,-40.59405650,SANTA TERESA - CENTRO,POLO UAB DE SANTA TERESA - CENTRO DE FORMACAO CONTINUADA DE PROFESSSORES,Av. Jeônimo Vervloet,145,Centro,29650000,NULL,(27) 32593613,(27) 32591249,santateresa.uab@gmail.com,otmarcilino@yahoo.com.br,www.neaad.ufes.br
939,Barão de Cocais,MG,-19.87418840,-43.50298840,BARAO DE COCAIS - CIDADE NOVA,POLO UAB DE APOIO PRESENCIAL DE BARAO DE COCAIS,Avenida 1 rua 4,262,Cidade Nova,35970000,NULL,(31) 38377610,(31) 999819929,polobcufop@yahoo.com.br,uab.barao@cead.ufop.br,NULL
1155,Nova Serrana,MG,-19.87778,-44.989667,NOVA SERRANA - JARDINS DO LAGO,CVT/UAITEC NOVA SERRANA,Av. Dom Cabral,373,Jardins do Lago,35519000,Número 373 ou 375,(37) 32265049,(),novaserrana@uaitec.mg.gov.br,NULL,NULL
1182,Sabará,MG,-19.893282,-43.812218,SABARÁ - CENTRO,Polo UAB de Sabará,Rua da Republica,58,Centro,34505030,NULL,(31) 36745833,(31) 995447715,sec.uabsabara@outlook.com,uab@sabara.mg.gov.br,NULL
216,Amajari,RR,-19.899034,-43.947954,AMAJARI - CENTRO,POLO UAB - AMAJARI,Av. Tepquen,0,CENTRO,69343000,NULL,(95) 35931043,(95) 35931101,luneivanobre@hotmail.com,mengolu@hotmail.com,NULL
1165,Contagem,MG,-19.955693,-44.037874,CONTAGEM - INCONFIDENTES,Polo UAB de Contagem,Praça Marília de Dirceu,20,Inconfidentes,32260220,NULL,(31) 33613264,(31) 83983264,uabpolo.contagem@gmail.com,tbiol@gmail.com,NULL
945,Frutal,MG,-19.99811660,-48.96059720,FRUTAL - UNIVERSITARIO,POLO UAB - FRUTAL (FRUTAL/MG),Av Professor Mario Palmério,1001,Universitário,38200000,Bloco B,(34) 34219350,(),polouabfrutal@hotmail.com,NULL,NULL
373,Cametá,PA,-2.23550580,-49.52799960,CAMETA - CENTRAL,UAB - POLO CAMETA,Av Gentil Bittencourt,1582,Centro,68400-00,NULL,(91) 37812122,(),uabcameta@gmail.com,NULL,NULL
780,São Luís,MA,-2.50451110,-44.29615360,SAO LUIS - JARDIM RENASCENCA,POLO SAO LUIS,Rua das Andirobas,26,Renascença I,65075040,NULL,(98) 32174013,(98) 981158043,polouabsaoluis@gmail.com,mariaeugeniabranco@yahoo.com.br,NULL
126,Juruti,PA,-2.64453940,-56.29293810,JURUTI - MARACANA,POLO UAB - JURUTI,Rua Arnaldo Pinheiro,0,Maracanã,68170000,Anexo ao Tribódromo,(93) 991338462,(93) 35361544,herilenesantos@hotmail.com,polojuruti@yahoo.com,NULL
491,Humberto de Campos,MA,-2.65560090,-43.56069460,HUMBERTO DE CAMPOS -  BACABEIRA,POLO UAB HUMBERTO DE CAMPOS,Rua São Miguel,0,Bacabeira,65180000,NULL,(98) 991539909,(),maunasocorro@yahoo.com.br,NULL,NULL
133,Tailândia,PA,-2.87968850,-48.79951220,TAILANDIA - NOVO,POLO UNIVERSITARIO DE TAILANDIA - UAB,AVENIDA FLORIANÓPOLIS,96,NOVO,68695000,NULL,(91) 37521664,(91) 91289255,polouniver.tailandiauab@gmail.com,sirlene_uabtailandia@hotmail.com,polouniver.tailandiauab@gmail.com
1177,Itarema,CE,-2.920304,-39.915704,ITAREMA - CENTRO,Polo UAB de Itarema,Praça Nossa Senhora de Fátima,0,Centro,72590000,NULL,(88) 36671666,(88) 999157405,clenio_marques@hotmail.com,NULL,NULL
41,Camocim,CE,-2.92643570,-40.83740110,CAMOCIM - CENTRO,POLO UAB - CAMOCIM,Rua Antônio Zeferino Veras,0,São Francisco,72400000,Camocim - CE,(88) 36211567,(88) 999487606,uabpolocamocim@hotmail.com,clivialenny@gmail.com,NULL
955,Acaraú,CE,-2.95850160,-40.10430570,ACARAU - CENTRO,Polo UAB - ACARAÚ,Av. João Jaime Ferreira Gomes,547,Centro,62580000,Escola de Educação Infantil Profa. Teresa de Jesus Silva,(88) 997131594,(88) 997131594,polouabacarau@gmail.com,nadiaaraujo6@yahoo.com.br,NULL
614,Paragominas,PA,-2.97543060,-47.36526130,PARAGOMINAS - JK,POLO DE PARAGOMINAS,Rua Cassimiro de Abreu,24,Jucelino Kubicheck,68625-97,NULL,(91) 37298044,(91) 37298021,uabparagominas@gmail.com,uabparagominaspa@yahoo.com.br,NULL
323,Bambuí,MG,-20.03579580,-45.98008480,BAMBUI - CENTRO,POLO UAB DE BAMBUI,R. Padre João Veloso,237,centro,38900000,NULL,(37) 34315274,(37) 34315180,polouabbambui@gmail.com,amjcoelho@yahoo.com.br,NULL
277,Igarapava,SP,-20.07067030,-47.66520510,IGARAPAVA - VILA GOMES,POLO UNIVERSITARIO ABERTO MUNICIPAL DE IGARAPAVA - UAB,Rua Azarias  Arantes,0,Vila Gomes,14540-00,NULL,(16) 31722638,() 31724806,educpmi2@yahoo.com.br,angelabisinoto52@gmail.com,NULL
54,Afonso Cláudio,ES,-20.08072220,-41.16025970,AFONSO CLAUDIO - CUSTODIO LEITE RIBEIRO,CENTRO MUNICIPAL DE EDUCACAO ABERTA E A DISTANCIA DE AFONSO CLAUDIO - UAB,Alameda Nossa Senhora de Lourdes,111,Custodio Leite RIbeiro,29600000,NULL,(27) 37352075,(27) 37351390,polouab@hotmail.com,vargasbal@yahoo.com.br,NULL
69,Santa Leopoldina,ES,-20.10543870,-40.51271420,SANTA LEOPOLDINA - CENTRO,POLO DE APOIO PRESENCIAL/UAB - UNIVERSIDADE ABERTA DO BRASIL,Rua Moxafongo,0,Centro,29640000,NULL,(27) 32661206,(27) 32661181,polouabsl@gmail.com,messiaselza@hotmail.com,NULL
579,Miranda,MS,-20.10940380,-56.65138530,MIRANDA - COAHB,PROFESSORA MAROLI VICENTE JULIO,Rua Carandá,300,Coahb,79380000,NULL,(67) 32424392,(67) 32421006,bete-teodoro@hotmail.com,regina_moliveira@hotmail.com (secretaria),NULL
451,Durandé,MG,-20.15523250,-41.78054770,DURANDE - CENTRO,POLO UAB DURANDE,Avenida Alvaro Moreira da Silva,615,Centro,36974000,Prédio,(33) 33421125,(33) 33421100,polodurandeufjf@gmail.com,glaucejc@bol.com.br,NULL
281,Jales,SP,-20.24555200,-50.55723840,JALES - COHAB JACB II,POLO REGIONAL DE JALES - UAB,Av. Brasília,934,Bairro COHAB JACB2,15707638,NULL,(17) 996719409,(17) 36215504,uab-polojales@hotmail.com,niltonmarquesjales@gmail.com,www.uabjales.com.br
72,Vitória,ES,-20.301149,-40.32266,VITORIA - TABUAZEIRO,POLO UAB - VITORIA,Rua Coronel José Martins de Figueiredo,45,Tabuazeiro,29043-40,3º andar da EMEF Eunice Pereira Silveira,(27) 33324413,(),izabel.uabvit@gmail.com,coordenacao.polouabvitoria@gmail.com,polouabvitoria.blogspot.com.br
60,Domingos Martins,ES,-20.32732640,-40.83740110,DOMINGOS MARTINS - CENTRO,POLO MUNICIPAL DE APOIO PRESENCIAL DE DOMINGOS MARTINS - UAB,TRAVESSA AUGUSTO SHWAMBACH,87,CENTRO,29260000,NULL,(27) 32683181,(),uab.dmartins@hotmail.com,elianasobrinho.numeros@hotmail.com,NULL
758,Vila Velha,ES,-20.331938,-40.291382,VILA VELHA - CENTRO,UNIVERSIDADE ABERTA DO BRASIL DE VILA VELHA,Antônio Ataíde,246,Centro de Vila Velha,29100295,NULL,(27) 33884342,(),creaad.polouab.vv@hotmail.com,NULL,NULL
63,Iúna,ES,-20.35977260,-41.74073940,IUNA - NITEROI,POLO MUNICIPAL DE EDUCACAO ABERTA E A DISTANCIA  DE IUNA,Av. Mintas Osório de Mattos,1459,Centro,29390000,Parque de Exposições Cassiono Osório Júnior,(28) 35453346,(),polouabiuna@gmail.com,mrftristao@gmail.com,NULL
753,Venda Nova do Imigrante,ES,-20.37781260,-41.14013490,VENDA NOVA DO IMIGRANTE - CENTRO,POLO MUNICIPAL  DE APOIO PRESENCIAL DA UAB-2,AV. EVANDI AMERICO COMARELA,385,CENTRO,29375000,TERCEIRO E QUINTO PISO DO PREDIO DA PREFEITURA,(28) 35461369,(),polouab2vni@hotmail.com,polouab2vni@yahoo.com.br,www.neaad.ufes.br
765,Votuporanga,SP,-20.43323440,-49.97156680,VOTUPORANGA - VILA MUNIZ,POLO MUNICIPAL DE VOTUPORANGA - UAB,Rua Pernanbuco,1736,Vila Muniz,15501095,NULL,(17) 34228839,(),polouabvotuporanga@gmail.com,NULL,http://www.votuporanga.sp.gov.br/uab
275,Barretos,SP,-20.53443680,-48.57293400,BARRETOS - DERBYCLUB,POLO UAB - BARRETOS,Rua 21 de Abril,240,Derby Clube,14787240,Derby Clube,(17) 33228184,(),uabpolobarretos@yahoo.com.br,NULL,www.barretos.sp.gov.br
471,Franca,SP,-20.54692070,-47.39987740,FRANCA - CENTRO,UAB POLO FRANCA,Avenida Champagnat,1808,Centro,14400320,NULL,(16) 37119224,(),uabpolofranca@gmail.com,claudiabolela@hotmail.com,NULL
58,Castelo,ES,-20.54700650,-41.16025970,CASTELO - VILA ISABEL,POLO UAB - CASTELO,Praça Mario Lima,43,Vila Isabel,29360000,Anexo a Escola Municipal Madalena Piza,(28) 33106909,(),polouabcastelo@gmail.com,NULL,NULL
97,Formiga,MG,-20.59235660,-45.48748730,FORMIGA - ROSARIO,POLO UAB - FORMIGA,Alderico Nogueira,470,Sagrado Coração de Jesus,35570000,NULL,(37) 33291800,(),uabpoloformiga@gmail.com,NULL,NULL
70,Vargem Alta,ES,-20.64588120,-41.01923490,VARGEM ALTA - CENTRO,"POLO MUNICIPAL DE APOIO PRESENCIAL CEMEAD ""ISAAC THOMPSON DE PAULA ""VARGEM ALTA - UAB",Rua Pedro Israel David,500,Centro,29295000,NULL,(28) 35281277,(28) 35281339,UABVARGEMALTAES@GMAIL.COM,F.SCARAMUSSA@YAHOO.COM.BR,NULL
93,Conselheiro Lafaiete,MG,-20.68508480,-43.75256190,CONSELHEIRO LAFAIETE - SAO DIMAS,POLO UAB - CONSELHEIRO LAFAIETE,Rua Padre Teófilo Reyn,990,São Dimas,3640000,Bairro São Dimas,(31) 37693002,(),polouab@conselheirolafaiete.mg.gov.br,uab.lafaiete@cead.ufop.br,www.uablafaiete.webnode.com
294,Alegre,ES,-20.68694060,-41.48127710,ALEGRE - CENTRO,POLO DE ALEGRE,Alto Universitário,0,Centro,29500000,Campus Universitário da UFES,(28) 35528989,(),polouabalegre@gmail.com,polouabalegre@yahoo.com.br,NULL
274,Bálsamo,SP,-20.69009570,-49.54836710,BALSAMO - CENTRO,POLO UAB - BALSAMO,Rua Aurora Soares Geraldes,419,Centro,15140000,NULL,(17) 32641278,(17) 32641571,educbalsamo@terra.com.br,juliomartiness@hotmail.com,uab.balsamo
919,Passos,MG,-20.71596920,-46.62159000,PASSOS - BELO HORIZONTE,ESCOLA MUNICIPAL PROFESSSORA AMELIA JABACE,Rua Santo Anibal,181,Belo Horizonte,37900038,NULL,(35) 35227027,(35) 35885484,secel@passos.mg.gov.br,uab@passos.mg.gov.br,NULL
699,São José do Rio Preto,SP,-20.81982850,-49.39127140,SAO JOSE DO RIO PRETO - VILA IMPERIAL,POLO UAB - SAO JOSE DO RIO PRETO,Rua Gneral Glicério,3947,Redentora,15015400,Anexo ao Prédio da Secretaria Municipal de Educacao,(17) 32114000,(17) 981356788,polouabriopreto@gmail.com,coordef2.smedu@gmail.com,www.riopreto.sp.gov.br
68,Piúma,ES,-20.84517360,-40.76653150,PIUMA - CENTRO,POLO UAB - PIUMA,Rua Jair Novais,56,Centro,29285000,NULL,(28) 35202144,(28) 35204160,polouabpiuma@gmail.com,castoriades@gmail.com,NULL
99,Ilicínea,MG,-20.91557650,-45.79002090,ILICINEA - CENTRO,POLO UAB - ILICINEA,Praça Padre João Lourenço Leite,220,Centro,37175000,NULL,(35) 38541238,(),ilicinea_polouab@yahoo.com.br,NULL,NULL
1141,São Sebastião do Paraíso,MG,-20.921378,-46.983229,SAO SEBASTIAO DO PARAISO - LAGOINHA,CVT/ UAITEC SAO SEBASTIAO DO PARAISO,Praça dos imigrantes,20,Lagoinha,37950000,NULL,(35) 35397016,(35) 35311573,uab@ssparaiso.mg.gov.br,NULL,NULL
1198,Carandaí,MG,-20.957001,-43.8113,CARANDAÍ - ROSA RIO,Polo UAB de Carandaí,Rua Coletos Cloves Teixeira de Carvalho,326,Rosa Rio,36280000,NULL,(32) 33612014,(32) 33611177,educacao@carandai.mg.gov.br,NULL,NULL
376,Campo Belo,MG,-20.96747840,-45.26185680,CAMPO BELO - CIDADE MONTESA,POLO UAB DE CAMPO BELO,Av. Indianápolis,325,Cidade Montesa,32270000,Escola Municipal Lucilia Gibram Cambraia,(35) 38327344,(),uabcampobelo@gmail.com,anamaripimenta@gmail.com,NULL
1015,Carmo do Rio Claro,MG,-20.972364,-46.119342,CARMO DO RIO CLARO - CENTRO,POLO UAB EM CARMO DO RIO CLARO,Praça Maria Gulart,37,Centro,37150000,Prédio da antiga Prefeitura Municipal,(),(),carmodorioclaro@uaitec.mg.gov.br,NULL,NULL
62,Itapemirim,ES,-20.98299040,-40.99905970,ITAPEMIRIM - CENTRO,POLO DE APOIO PRESENCIAL DO SISTEMA UNIVERSIDADE ABERTA DO BRASIL - UAB DE ITAPEMIRIM/ES.,Av. Cristiano Dias Lopes Filho,0,Centro,29330000,NULL,(28) 35296064,(28) 35296170,silvanabatistasp@gmail.com,NULL,NULL
646,Porto Murtinho,MS,-20.99934800,-57.28186250,PORTO MURTINHO - CENTRO,POLO DE FORMACAO ACADEMICA DE PORTO MURTINHO,Av. Larangeira,264,centro,79280000,Prédio da antiga prefeitura,(67) 32871784,(67) 32874550,manolodijorge@yahoo.com.br,semeelpm@yahoo.com.br,NULL
366,Cachoeiro de Itapemirim,ES,-21.01000620,-40.83105770,CACHOEIRO DE ITAPEMIRIM - DR. LUIZ TINOCO DA FONSECA - MORRO GRANDE,POLO UAB - CACHOEIRO DE ITAPEMIRIM,Rodovia Engenheiro Fabiano Vivácqua,0,Dr. Luiz Tinoco da Fonseca - Morro Grande,29313230,Cidade Universitária,(28) 35213938,(),jcellin@yahoo.com.br,NULL,NULL
89,Boa Esperança,MG,-21.01654780,-45.63851250,BOA ESPERANCA - OZANAN,POLO UAB - BOA ESPERANCA,Rua Tonico Rodrigues,480,Ozanan,37170-00,Unidade CAIC,(35) 38518073,(35) 38510300,polouab@boaesperanca.mg.gov.br,NULL,www.boaesperanca.mg.gov.br
188,Natividade,RJ,-21.03462200,-41.93948920,NATIVIDADE - CENTRO,POLO UAB - NATIVIDADE,Rua Vigário João Batista,3,Centro,28380000,Colégio Municipal Alvorada,(22) 38411274,(22) 38411681,colegioalvorada2010@hotmail.com,NULL,NULL
57,Bom Jesus do Norte,ES,-21.09805070,-41.63111660,BOM JESUS DO NORTE - CENTRO,POLO UAB DE APOIO PRESENCIAL DE BOM JESUS DO NORTE-ES,Av. Francisco Lacerda de Aguiar,0,Centro,29460-00,NULL,(28) 35622544,() 35621166,UAB.BJN@GMAIL.COM,NULL,NULL
65,Mimoso do Sul,ES,-21.09852120,-41.40119600,MIMOSO DO SUL - CHACARA DO CHAFARIZ,POLO MUNICIPAL DE APOIO PRESENCIAL - CENTRO MUNICIPAL DE EDUCACAO ABERTA E DISTANCIA - MIMOSO DO SUL,Rua Projetada,0,Chacara Chafariz,29400000,Pombal,() 35550685,(),uab.polomimosodosul@gmail.com,NULL,NULL
909,Ubá,MG,-21.10501130,-42.96115710,UBA - TRIANGULO,ELIZANGELA COSTA,Avenida Olegario Maciel,1427,Industrial,36500000,Predio daFUNIR-Fundaçao Minicipal Irailda Ribeiro dos Santos,(32) 35396404,(32) 98125445,polouabuba@gmail.com,elizangelacostacoordenadorauab@gmail.com,NULL
735,Tiradentes,MG,-21.10978180,-44.16253380,TIRADENTES - PARQUE DAS ABELHAS,POLO DE APOIO PRESENCIAL DE TIRADENTES,Rua Manoel Moraes Batista Junior,502,Parque das Abelhas,36325000,NULL,(32) 33551889,(32) 886802715,polouabtiradentes@yahoo.com.br,hericeglayse@hotmail.com,NULL
181,Bom Jesus do Itabapoana,RJ,-21.13300590,-41.74073940,BOM JESUS DO ITABAPOANA - CENTRO,POLO UAB - BOM JESUS DO ITABAPOANA,Av. Governador Roberto Silveira,578,Centro,28360000,Colégio Estadual Padre Mello,(22) 38318067,(),polo-bomjesusdoitabapoana@cecierj.edu.br,NULL,www.cederj.edu.br/fundaçãocecierj/
109,São João del Rei,MG,-21.13841280,-44.26729820,SAO JOAO DEL REI - TIJUCO,POLO DE APOIO PRESENCIAL DE SAO JOAO DEL-REI - UAB,Av General Osório,779,Tijuco,36300170,-,(32) 98031679,(),polouabsjdelrei@gmail.com,mjeanettdelrei@gmail.com,NULL
335,Barroso,MG,-21.17792380,-43.95321490,BARROSO - SANTA MARIA,POLO UAB  BARROSO,Avenida Carlos Alberto Pereira de Moura da Silva,0,Santa Maria,36212000,Parque de Exposições,(32) 33511524,(),polobarroso@hotmail.com,NULL,NULL
185,Itaperuna,RJ,-21.18777470,-41.87994080,ITAPERUNA - PRESIDENTE COSTA E SILVA,POLO UAB - ITAPERUNA,Av. Zulamith Bittencourt,0,Presidente Costa e Silva,28300000,CIEP LINA BOBARDI - Terceiro pavimento,(22) 38224309,(22) 38227489,polo-itaperuna@cecierj.edu.br,mvalleriote@gmail.com,www.cederj.edu.br
716,Serrana,SP,-21.21051660,-47.62583600,SERRANA - JARDIM CRISTINA,OFICINA CULTURAL YOLANDA MINTO DUZZI,Rua Santa Cruz,1725,Jardim Cristina,14150000,NULL,(16) 39871263,(16) 39879838,fernandoreis@serrana.sp.gov.br,polouabserrana@gmail.com,http://www.serrana.sp.gov.br/secretarias/educacao/uab.php
85,Alterosa,MG,-21.24063060,-46.09448450,ALTEROSA - CRUZEIRO,POLO DE EDUCACAO A DISTANCIA DA BAIXA MOGIANA - ALTEROSA - UAB,Rua José Joaquim Terra,65,Cruzeiro,37145000,NULL,(35) 32941963,(),poloead@alterosa.mg.gov.br,NULL,NULL
554,Lavras,MG,-21.26591390,-45.03731710,LAVRAS - CENTRO,POLO UAB DE LAVRAS,praça Dr. Jorge,130,Centro,37200000,Escola Alvaro Botelho,(35) 38212695,(),polouablavras@gmail.com,telsuita@gmail.com,NULL
92,Campos Gerais,MG,-21.26694130,-45.71420630,CAMPOS GERAIS - CENTRO,POLO UAB - CAMPOS GERAIS,Rua Jorge de Paula Meinberg,689,Centro,37160000,NULL,(35) 38532870,(35) 38532343,polouab@camposgerais.mg.gov.br,mafdec@gmail.com,NULL
199,São Francisco de Itabapoana,RJ,-21.40338450,-41.16025970,SAO FRANCISCO DE ITABAPOANA - CENTRO,POLO UAB - SAO FRANCISCO DE ITABAPOANA,Rua Antonio Pinheiro Filho,2,Centro,28230000,CIEP 470,(22) 27891323,(22) 27891530,polo-saofrancisco@cecierj.edu.br,NULL,NULL
924,Cataguases,MG,-21.41172380,-42.68219160,CATAGUASES - SANTA CLARA,POLO UAB DE APOIO PRESENCIAL DE CATAGUASES,Av. Nicolau Siervi,161,Vila Minalda,36772430,NULL,(32) 34211955,(32) 34222097,uabcataguases@gmail.com.br,NULL,NULL
938,Varginha,MG,-21.56482930,-45.44254040,VARGINHA - VILA BUENO,POLO UAB DE APOIO PRESENCIAL DE VARGINHA,Rua Esmeralda,102,Vila Bueno,37006580,NULL,(35) 36902177,(35) 36902094,erikatrombine.semec@varginha.mg.gov.br,erika.trom@gmail.com,NULL
574,Matão,SP,-21.61177050,-48.34938920,MATÃO - CENTRO,POLO UAB - MATAO,Av 15 de novembro,329,Centro,15990630,NULL,(16) 33836658,(16) 33836659,polouabmatao@matao.sp.gov.br,fregnaniramalho@ig.com.br,www.facebook.com/polouabmatao
198,São Fidélis,RJ,-21.67617720,-41.80044090,SAO FIDELIS - DIRLEY PERLINGEIRO DE ABREU,POLO UAB - SAO FIDELIS,Rua Elysio da Costa Santos,0,Dirley Perlingeiro de Abreu,28400000,CIEP 420 - Joaquim Maia Brandão,(22) 27585056,(22) 27582639,polo-saofidelis@cederj.rj.gov.br,celiamgpacheco@yahoo.com.br,NULL
184,Itaocara,RJ,-21.73190070,-42.05838860,ITAOCARA - CENTRO,POLO UAB - ITAOCARA,Rua Nilo Peçanha,471,Centro,28570000,Colégio Municipal Professor Nildo Caruso Nara,(22) 38614844,(22) 38618300,polo-itaocara@cecierj.edu.br,itaocaracederj@yahoo.com.br,NULL
88,Bicas,MG,-21.74277550,-43.11656210,BICAS - CENTRO,POLO REGIONAL UNIVERSITARIO DE BICAS - UAB,RUA CÔNEGO PIO,NULL,CENTRO,36600000,NULL,(32) 32713249,(),polouab.bicas@gmail.com,polouab.bicas@gmail.com.,NULL
1181,Andrelândia,MG,-21.745102,-44.325337,ANDRELÂNDIA - SANTOS DUMONT,Polo UAB de Andrelândia,Rua Dr. Walter Octacílio Silva,1400,Santos Dumont,37300000,NULL,(35) 33251146,(35) 84467651,polouab@andrelandia.mg.gov.br,NULL,NULL
543,Juiz de Fora,MG,-21.74902050,-43.35164250,JUIZ DE FORA - LADEIRA,POLO UAB DE JUIZ DE FORA,Rua Maria Perpétua,72,Ladeira,36052560,NULL,(32) 21048401,(32) 36907228,polouabjf@yahoo.com.br,sfmmarcia@yahoo.com.br,NULL
113,Rio Brilhante,MS,-21.78031450,-54.52180740,RIO BRILHANTE - ZONA RURAL,POLO UAB - RIO BRILHANTE,Br.163 - Km 314,NULL,ZONA RURAL,79130000,Fazenda CAdeado Parte II,(67) 34528348,(),nao@informado.com,EUNICERIOBRILHANTE@HOTMAIL.COM,NULL
336,Bataguassu,MS,-21.81502920,-52.57455560,BATAGUASSU - JARDIM SANTA MARIA,POLO DE APOIO PRESENCIAL DE BATAGUASSU,av. Presidente Prudente,10,Jardim Santa Maria,79780000,NULL,(67) 35413793,(),sorayalemes@gmail.com,NULL,NULL
182,Cantagalo,RJ,-21.88988020,-42.35448310,CANTAGALO - CENTRO,POLO UAB - CANTAGALO,Rua Chapot Prevost,157,Centro,28500000,NULL,(22) 25554786,(22) 25551442,polo-cantagalo@cederj.rj.gov.br,NULL,NULL
339,Bela Vista,MS,-21.91114830,-56.47199280,BELA VISTA - CENTRO,POLO UAB III José Garibaldi da Rosa Neto,Rua Afonso Pena,0,Costa e Silva,79260000,Anexo Escola Estadual Dr Joaquim Murtinho,(67) 34393959,(),belavistapolo@gmail.com,NULL,NULL
694,São João da Boa Vista,SP,-21.96732160,-46.79532770,SAO JOAO DA BOA VISTA - CENTRO,POLO REGIONAL DE EXCELENCIA TECNOLOGICA DE SAO JOAO DA BOA VISTA,RUA RIACHEULO,444,CENTRO,13870-23,NULL,(19) 36310114,(19) 36342636,professoraeloisa@yahoo.com.br,sjbveducacao@gmail.com,NULL
108,Santa Rita de Caldas,MG,-21.97209120,-46.24743810,SANTA RITA DE CALDAS - CENTRO,POLO PRESENCIAL UAB - SANTA RITA DE CALDAS,Rua Prefeito Sebastião Januzzi,20,Centro,37775000,NULL,(35) 37341209,(35) 998077382,polouabsrc@hotmail.com,patriciafonsecasrc@gmail.com,NULL
284,São Carlos,SP,-22.01336420,-47.89687290,SAO CARLOS - VILA NERY,POLO DE APOIO PRESENCIAL DE SAO CARLOS - UAB,R. São Sebastião,2828,Vila Nery,13560230,Campus Rui Barbosa - FESC,(16) 34132951,(16) 34132953,maristela.cerqueira@fesc.saocarlos.sp.gov.br,gabinete@saocarlos.sp.gov.br,NULL
204,Três Rios,RJ,-22.12332150,-43.20631800,TRES RIOS - CENTRO,POLO UAB - TRES RIOS,Rua Marechal Deodoro,117,Centro,25802-22,NULL,(24) 22554574,(24) 22553071,polo-tresrios@cederj.rj.gov.br,NULL,NULL
661,Rio das Flores,RJ,-22.17488420,-43.59912800,RIO DAS FLORES - CENTRO,POLO UAB - RIO DAS FLORES,RUA EURICO DE CASTRO,12,CENTRO,27660-00,NULL,(24) 24580765,(24) 24581390,mrmbarros@yahoo.com.br,poloriodasflores@ymail.com,NULL
1152,Santa Rita do Sapucaí,MG,-22.254727,-45.704074,SANTA RITA DO SAPUCAI - CENTRO,CVT UAITEC SANTA RITA DO SAPUCAI,Av. Sinhá Moreira,350,Centro,37540-00,NULL,(35) 34733600,(),santaritadosapucai@uaitec.mg.gov.br,NULL,NULL
534,Jaú,SP,-22.29371410,-48.55750020,JAU - CENTRO,POLO UAB JAU,Rua Quintino Bocaiuva,532,Centro,17201470,NULL,(14) 36225838,(14) 36263802,smerchanferraz@gmail.com,paduasalles.jau@bol.com.br,NULL
189,Nova Friburgo,RJ,-22.30908310,-42.54284560,NOVA FRIBURGO - OLARIA,POLO UAB - NOVA FRIBURGO,Av. José Pires Barroso,0,Olaria,28620075,CIEP 124 Licínio Teixera,(22) 25192437,(22) 25192043,polo-novafriburgo@cecierj.edu.br,NULL,NULL
102,Itamonte,MG,-22.31547250,-44.73814320,ITAMONTE - CENTRO,POLO UAB - ITAMONTE,Rua Presidente Vargas,149,Centro,37446-00,NULL,(35) 33631103,(),uabitamonte@yahoo.com.br,NULL,NULL
313,Araras,SP,-22.36390900,-47.37866070,ARARAS - CENTRO,POLO UAB - ARARAS,Av. Nestlé,58,Centro,13601005,NULL,(19) 35479696,(),uabararas@gmail.com,educação@araras.sp.gov.br,NULL
186,Macaé,RJ,-22.38367050,-41.78274610,MACAE - IMBOACICA,POLO UAB - MACAE,"Rodovia Amaral Peixoto, Km 164",0,Imboacica,0,Prédio do CEFET - Campos Macaé,(22) 27656029,(22) 27965016,cederjmacae@yahoo.com.br,NULL,NULL
862,Barra do Piraí,RJ,-22.46290680,-43.81557870,BARRA DO PIRAI - QUIMICA,POLO UAB - BARRA DO PIRAI,Rua Dr. Luiz Alves Pereira,70,Quimica,27130140,2º Andar,(24) 24431956,(),polo-barradopirai@cederj.rj.gov.br,EVITEIXEIRA@GMAIL.COM,NULL
662,Rio das Ostras,RJ,-22.46508170,-41.93948920,RIO DAS OSTRAS - ZONA ESPECIAL DE NEGOCIOS- ZEN,POLO RIO DAS OSTRAS,Rua do Engenheiro,0,Zona Especial de Negocios - Zen,28890000,"Quadra F, lote 9C",(22) 27603367,(),polo.uabriodasostras@gmail.com,polo.uab@riodasostras.rj.gov.br,NULL
194,Resende,RJ,-22.47218760,-44.44832370,RESENDE - CENTRO,POLO UAB - RESENDE/RJ - PROF  WALDA VALKYRIA BRUNO,Rua Padre Marques,68,Centro,27541100,"Subsolo, Térreo, primeiro ao quinto andar",(24) 33548053,() 33547337,polo.educar@yahoo.com.br,NULL,NULL
187,Miguel Pereira,RJ,-22.48556990,-43.50156230,MIGUEL PEREIRA - GOVERNADOR PORTELA,POLO UAB - MIGUEL PEREIRA,Rua Luiz Eugênio,61,Recreio,26900-00,NULL,(24) 24846218,(24) 28438463,polomiguelpereira@gmail.com,NULL,NULL
205,Volta Redonda,RJ,-22.50456720,-44.09577200,VOLTA REDONDA - JARDIM PARAIBA,POLO UAB - VOLTA REDONDA,Rua 539,0,Jardim Paraiba,27215500,Andar inferior do Estádio Municipal Futebol Raulino Oliveira,(24) 33394221,(),secr.cederjvr@hotmail.com,NULL,NULL
191,Petrópolis,RJ,-22.53281210,-43.20769290,PETRÓPOLIS - CASCATINHA,POLO UAB - PETROPOLIS,Estrada Machado Fagundes,326,Cascatinha,25716001,Estrada da Saudade,(24) 22468680,(24) 22496981,polo-petropolis@cecierj.rj.gov.br,meirellesguerra@gmail.com,NULL
1164,Paraisópolis,MG,-22.556284,-45.776055,PARAISÓPOLIS - JARDIM AEROPORTO,Polo UAB de Paraisópolis,Rua Cimbica,37,Jardim Aeroporto,37660000,NULL,(35) 36511603,(35) 984058332,polouabparaisopolis@gmail.com,educacao@paraisopolis.mg.gov.br,NULL
91,Cambuí,MG,-22.57710800,-46.07539910,CAMBUI - CENTRO,POLO UAB - CAMBUI,Rua Antonio Alexandre de Moraes,39,Centro,37600000,NULL,(35) 34316693,(35) 987075089,polouab@prefeituradecambui.mg.gov.br,elizendadardes@hotmail.com,NULL
192,Piraí,RJ,-22.60255800,-43.90551550,PIRAI - CENTRO,POLO UAB - PIRAI,Rua Roberto Silveira,86,Centro,27175000,NULL,(24) 24319982,(24) 24316234,polo-pirai@cederj.rj.gov.br,cederj@piraidigital.com.br,NULL
190,Paracambi,RJ,-22.61730510,-43.69508040,PARACAMBI - FABRICA,POLO UAB - PARACAMBI,Rua Sebastião de Lacerda,0,Fábrica - Paracambi - RJ,26600000,Polo CEDERJ - UAB Paracambi,(21) 36933299,(21) 36933299,polo-paracambi@cecierj.edu.br,NULL,NULL
564,Magé,RJ,-22.63379450,-43.13595420,MAGE - CENTRO,POLO UAB - MAGE,Av. Padre Anchieta,163,Centro,25900010,Escola  Munic. Desembargador Oswaldo Portella,(21) 26334015,(21) 36304255,cederjmage@gmail.com,tucka13@gmail.com,NULL
848,Diamante do Norte,PR,-22.65064580,-52.89558750,DIAMANTE DO NORTE - CRN UEM,POLO UAB DE DIAMANTE DO NORTE,Rodovia PR 182,0,-,87990000,Km 1 - UEM - Campus Regional do Noroeste,(44) 34298000,(44) 34298300,adriana.ga.va@hotmail.com,gavadri@ig.com.br,NULL
863,Belford Roxo,RJ,-22.71197960,-43.34446170,BELFORD ROXO - PARQUE COLONIAL (JARDIM DO IPE- LOTE XV),POLO UAB - BELFORD ROXO,RUA ISITUBA,0,PARQUE COLONIAL (JARDIM DO IPÊ - LOTE XV),26180-10,NULL,(21) 31356132,(),polocederjbr@hotmail.com,NULL,NULL
195,Rio Bonito,RJ,-22.73739420,-42.59016720,RIO BONITO - PRACA DO CRUZEIRO,POLO UAB - RIO BONITO,BR 101 - KM 265 - Praça Cruzeiro,0,Praça Cruzeiro,28800000,Colégio Munic. Dr. Astério Alves de Mendonça,() 36344081,(21),poloriobonitocederj@gmail.com,NULL,NULL
154,Água Branca,PI,-22.75339600,-47.63155250,AGUA BRANCA - CENTRO,POLO UAB - UNIVERSIDADE ABERTA DO PIAUI - AGUA BRANCA,Avenida José Miguel,0,Centro,64640000,NULL,(86) 32821425,(),aguabrancauapi@yahoo.com.br,ceicapacheco@bol.com.br,www.uapi.ufpi.br
593,Nova Iguaçu,RJ,-22.75613190,-43.46074190,NOVA IGUACU - CENTRO,POLO UAB - NOVA IGUACU,Rua Doutor Paulo Froes Machado,38,Centro,26255-17,NULL,(21) 26694811,(),polo-novaiguacu@cederj.rj.gov.br,cbittencourt@cederj.rj.gov.br,NULL
287,Tarumã,SP,-22.77429800,-50.61714290,TARUMA - CENTRO,POLO MUNICIPAL DE APOIO PRESENCIAL DE TARUMA -,Rua Girassol,201,Centro,19820000,Em frente a câmara Municipal de Educação De Tarumã,() 33292950,(18),polotaruma.uab@gmail.com,polotaruma.uab.secretaria@gmail.com,NULL
450,Duque de Caxias,RJ,-22.78365320,-43.30727560,DUQUE DE CAXIAS - JARDIM 25 DE AGOSTO,POLO UAB - DUQUE DE CAXIAS,Rua Marechal Floriano,555,Bairro Jardim 25 de agosto,25075000,NULL,(21) 26533963,(21) 36573025,caxias.cederj@ig.com.br,NULL,NULL
174,Nova Londrina,PR,-22.79564860,-52.98143830,NOVA LONDRINA - CENTRO,POLO UAB _ POLO MUNICIPAL DE APOIO PRESENCIAL DE NOVA LONDRINA EM EAD - UAB,Praça da Matriz,238,Centro,87970000,Escola Municipal Isolde Julieta Andreatta,(44) 34321351,(44) 34321179,educanl@yahoo.com.br,sec-polouabnl@hotmail.com,NULL
200,São Gonçalo,RJ,-22.83039940,-43.08542070,SAO GONCALO - GRADIM,POLO UAB - SAO GONCALO,Rua Visconde de Itauna,0,Gradim,24431-00,NULL,(21) 37093809,(21) 37156823,polosgcederj@yahoo.com.br,eli.vian@hotmail.com,NULL
202,São Pedro da Aldeia,RJ,-22.85248200,-42.05201660,SAO PEDRO DA ALDEIA - NOVA SAO PEDRO DA ALDEIA,POLO UAB - SAO PEDRO DA ALDEIA,Rua A,0,Nova São Pedro,28940000,FAETEC,(22) 26272168,(),polosaopedrocederj@yahoo.com.br,fatimacederj@yahoo.com.br,NULL
512,Itaguaí,RJ,-22.86414220,-43.77579390,ITAGUAI - CENTRO,POLO UAB/CEDERJ ITAGUAI,Rua Divino Jose Batista,125,Centro,23815000,Colegio Municipal Senador Teotonio Vilela,(),(),polo-itaguai@cederj.rj.gov.br,diretor-itaguai@cederj.rj.gov.br,NULL
203,Saquarema,RJ,-22.87620880,-42.46685020,SAQUAREMA - RIO DE AREIA,POLO UAB - SAQUAREMA,Rua Antônio Ferreira,110,Rio de Areia,2890000,2º andar da Escola Municipal Edilson Vignóli Martins,(22) 26554041,(),polosaquarema@cederj.rj.gov.br,polosaquarema@yahoo.com.br,NULL
861,Niterói,RJ,-22.87998820,-43.10432270,NITEROI - FONSECA,POLO UAB - NITEROI,Rua Soares Miranda,77,Fonseca,24130030,5º Andar,(21) 36038340,(21) 27216678,santos.mfatima1@gmail.com,polo-niteroi@cecierj.edu.br,NULL
196,Rio de Janeiro,RJ,-22.89876670,-43.57912110,RIO DE JANEIRO - CAMPO GRANDE,POLO UAB - CAMPO GRANDE,Av. Manuel Caldeira de Alvarenga,1203,Campo Grande,23070200,Segundo Andar,(21) 23327581,(21) 23327580,polo-campogrande@cecierj.edu.br,NULL,NULL
375,Campinas,SP,-22.89920060,-47.03229140,CAMPINAS - JARDIM PAINEIRAS,CAMPINAS,Rua João Alves dos Santos,860,Jardim Paineiras,13092331,NULL,(19) 32591496,(19) 32591495,uab@campinas.sp.gov.br,uabcampinas@gmail.com,https://www.facebook.com/uabcampinas/
353,Bragança Paulista,SP,-22.93503260,-46.53873550,BRAGANCA PAULISTA - UBERABA,POLO UAB BRAGANCA PAULISTA,Rua Alexadre Berbari,101,Jardim São Lourenço,12926-67,Escola Municipal Jandira da Costa Valente,(11) 40351600,(11) 40323187,uabpolobraganca@hotmail.com,NULL,NULL
1200,Rio de Janeiro,RJ,-22.993012,-43.252173,RIO DE JANEIRO - SÃO CONRADO,Polo UAB do Rio de Janeiro - Rocinha,Berta Lutz,85,São Conrado,22450290,Complexo Esportivo da Rocinha,(21) 23347099,(21) 23331115,polo-rocinha@cecierj.edu.br,nana64@uol.com.br,NULL
180,Angra dos Reis,RJ,-22.99529960,-44.23816670,ANGRA DOS REIS - JACUECANGA,POLO UAB - ANGRA DOS REIS,Av dos Trabalhadores,179,Jacuecanga,23914360,Polo Universitaio Jair Travasso,(24) 33667128,(24) 33667137,poloangracederj@gmail.com,NULL,NULL
340,Bela Vista do Paraíso,PR,-22.99598170,-51.24223950,BELA VISTA DO PARAISO - CENTRO,POLO PRESENCIAL FREDERICO OSAKU LEITE,R. Dra. Marta da Silva Gomes,732,Centro,86130000,Proximo a prefeitura,(43) 32423749,(43) 32423103,polofredericoosakuleite@gmail.com,s.siq@hotmail.com,NULL
177,Paranavaí,PR,-23.07877170,-52.43802800,PARANAVAI - JARDIM SANTOS DUMOND,POLO UAB  DE PARANAVAI,RUA BARÃO DO CERRO AZUL,210,JARDIM SANTOS DUMOND,87706-03,NULL,(44) 39021207,(),uab@paranavai.pr.go.br,NULL,www.paranavai.pr.gov.br/uab
1364,Jaguapitã,PR,-23.116316,-51.530237,JAGUAPITÃ - CENTRO,Polo UAB Jaguapitã,Rua Plácido de Castro,380,Centro,86610000,NULL,(43) 32721014,(43) 99098535,escolamunicipalpaulofreire@hotmail.com,dofthemys.pr@gmail.com,NULL
527,Jacarezinho,PR,-23.15809470,-49.97771360,JACAREZINHO - CENTRO,UNIVERSIDADE ABERTA DO BRASIL - POLO JACAREZINHO,Rua Costa Junior,1065,centro,86400000,NULL,(43) 39113148,(43) 35258700,srtalves@hotmail.com,uabpolojacarezinho@hotmail.com,NULL
1076,São José dos Campos,SP,-23.16985330,-45.89119640,SAO JOSE DOS CAMPOS - SANTANA,POLO UAB DE SAO JOSE DOS CAMPOS,Avenida Olivo Gomes,250,Santana,12215-11,Ao lado do parque da cidade de São José dos Campos,(12) 39395010,(12) 39113748,gabinetesme02@sjc.sp.gov.br,rosemary.pagotto@sjc.sp.gov.br,NULL
324,Bandeirantes,PR,-23.17837570,-50.30690880,BANDEIRANTES - VILA MORETI,UAB - BANDEIRANTES,Rua dos Expedicionários,160,Vila Moretti,86360000,Escola Municipal Santa Terezinha,(43) 35422367,(43) 996072522,bandeirantes@ead.uepg.br,claudiauab@yahoo.com.br,NULL
1186,Londrina,PR,-23.256766,-51.146796,LONDRINA - CONJUNTO HABITACIONAL MARIA CECÍLIA SERRANO DE OLIVEIRA,Polo UAB de Londrina,Rua Luiz Brugin,615,Conjunto Habitacional Maria Cecília Serrano d,86085310,NULL,(43) 33724097,(43) 33750093,edu.planejamento@londrina.pr.gov.br,NULL,NULL
169,Astorga,PR,-23.27528450,-51.72559910,ASTORGA - VILA SAMUEL,POLO MUNICIPAL DE APOIO PRESENCIAL EAD-UAB-ASTORGA,Paulo Tadashi Satomi,581,Vila Samuel,86730000,Escola Municipal Antenor Balarotti,(44) 32346422,(),uabpoloastorga@hotmail.com,adrianacheron01@hotmail.com,NULL
671,Santa Isabel,SP,-23.336134,-46.230111,SANTA ISABEL - JARDIM NOVO ÉDEN,SANTA ISABEL-SP,Rua das Rosas,780,Jardim Novo Éden,7500000,EMEB Prefeito Waldir José Cabral Saueia,(11) 46574384,(11) 994517519,uab@santaisabel.sp.gov.br,uab.santaisabel@gmail.com,facebook/uabpolosantaisabel
170,Cidade Gaúcha,PR,-23.39361750,-52.93850020,CIDADE GAUCHA - RODOVIA,POLO UAB DE APOIO PRESENCIAL CIDADE GAUCHA - PR,"BR 482, km45",0,Área Rural,87820000,Próximo a Pólicia Rodoviária Estadual,(44) 36758288,(44) 36758538,uab.gaucha@gmail.com,vivmr@hotmail.com,-
318,Assaí,PR,-23.40498920,-50.86644510,ASSAI - CENTRO,POLO UAB -POLO PRESENCIAL DE APOIO AO ENSINO A DISTANCIA DE ASSAI,R. Manoel Ribas,1103,Centro,86220000,Colegio Estadual Barão do Rio Branco,(43) 32621938,(),cidalima.uab@pmassai.com.br,NULL,NULL
1105,São Paulo,SP,-23.406856,-46.750176,SAO PAULO - VILA MALVINA,UniCEU PERUS,Rua Bernardo José de Lorena,0,Perus,5203200,CEU Perus,(11) 39158775,(11) 39158774,smeuniceuperus@prefeitura.sp.gov.br,uniceuperus@gmail.com,NULL
1090,Arapongas,PR,-23.40917410,-51.44497710,ARAPONGAS - CENTRO,POLO UAB ARAPONGAS,Rua Pavão,26,Centro,86701-29,Escola Municipal Antonica Giroldo Franciosi,(43) 39021103,(),sedesarap@yahoo.com.br,NULL,NULL
1022,São Paulo,SP,-23.43499050,-46.75129620,SAO PAULO - JARDIM SANTA LUCRECIA,CEU PERA MARMELO,Rua Pera Marmelo,226,Jardim Santa Lucrecia,5185420,NULL,(11) 39483967,(11) 39483964,smeceuperamarmelo@prefeitura.sp.gov.br,NULL,NULL
713,Sarandi,PR,-23.44531840,-51.85829610,SARANDI - JARDIM INDEPENDENCIA III PARTE,POLO DE APOIO PRESENCIAL  DE SARANDI,Rua Castro Alves,3225,Jardim Independencia - parte III,87114090,NULL,(44) 31261234,(44) 31261230,uabsarandi@gmail.com,NULL,NULL
1026,São Paulo,SP,-23.45913140,-46.70812870,SAO PAULO - JARDIM PAULISTANO (ZONA NORTE),CEU JARDIM PAULISTANO,Rua Aparecida do Taboado,0,Jardim Paulistano,2814000,NULL,(11) 33975410,(),ceujardimpaulistano@prefeitura.sp.gov.br,NULL,NULL
276,Guarulhos,SP,-23.46021230,-46.49729170,GUARULHOS - MACEDO,CENTRO MUNICIPAL DE EDUCACAO ADAMASTOR - CME,Monteiro Lobato,734,Macedo,7112000,- até 1589/1590,(11) 24087603,(11) 24725423,adamastor.guarulhos@gmail.com,adamastor.guarulhos@gmail.com,NULL
1023,São Paulo,SP,-23.46068000,-46.58316910,SAO PAULO - JARDIM GUAPIRA,CEU JACANA,Rua Antonio Cesar Neto,105,Jardim Guapira- Jaçana,2276000,NULL,(11) 33973979,(11) 39583975,smeceujacana@prefeitura.sp.gov.br,NULL,NULL
1101,São Paulo,SP,-23.474937,-46.668394,SAO PAULO - VILA NOVA CACHOEIRINHA,CEU EMEF GILBERTO DUPAS,Av. Dep. Emílio Carlos,3871,Vila Nova Cachoeirinha,2721200,NULL,(11) 39831621,(),emefgdupas@prefeitura.sp.gov.br,NULL,NULL
1021,São Paulo,SP,-23.48212440,-46.75902210,SAO PAULO - JARAGUA,CEU VILA ATLANTICA,Rua  Cel. Jose Venancio Dias,840,Jardim Nardini- Jaragua,5160030,NULL,(11) 39018743,(11) 39018744,smeceuvlatlantica@prefeitura.sp.gov.br,NULL,NULL
1068,Barueri,SP,-23.485963,-46.860651,BARUERI - ALPHAVILLE EMPRESARIAL,FIEB – FUNDACAO INSTITUTO DE EDUCACAO DE BARUERI,Av. Andromeda,500,Centro,6473000,FIEB- Fundação Instituto de Educação de Barueri,(11) 20787811,(),superintendente@fieb.edu.br,mar-miguel@uol.com.br,NULL
1031,São Paulo,SP,-23.49708390,-46.40003080,SAO PAULO - JARDIM MIRANGAIA,CEU VILA CURUCA,Avenida Marechal Tito,3400,Jardim Mirangaia,08115-00,CEU VILA CURUÇA,(11) 25636146,(11) 25636150,smeceuvlcuruca@prefeitura.sp.gov.br,NULL,NULL
1027,São Paulo,SP,-23.50105380,-46.49797390,SAO PAULO - CANGAIBA,CEU QUINTA DO SOL,Av. Luiz Imparato,564,Vila Cisper,3819160,Ceu Quinta do Sol,() 33963430,(11),ceuquintadosol@prefeitura.sp.gov.br,NULL,NULL
1030,São Paulo,SP,-23.51188960,-46.47497800,SAO PAULO - JARDIM SAO CARLOS (ZONA LESTE),UNICEU PARQUE SÃO CARLOS,Rua  Clarear,643,Jardim São Carlos,8062590,NULL,(11) 20454205,(11) 20263594,smeuniceupqsaocarlos@prefeitura.sp.gov.br,NULL,NULL
1032,São Paulo,SP,-23.51352200,-46.38994820,SAO PAULO - CHACARA DONA OLIVIA,CEU PARQUE VAREDAS,Rua Daniel Muller,347,Parque Veredas,8147290,Chacará Dona Olívia,(11) 25636247,(11) 25636248,smeceupqveredas@prefeitura.sp.gov.br,NULL,NULL
1094,São Paulo,SP,-23.520655,-46.45603,SAO PAULO - CIDADE ANTONIO ESTEVAO DE CARVALHO,CEU AZUL DA COR DO MAR,Rua Ernesto de Souza Cruz,2171,Cidade Antônio Estevão de Carvalho,8225380,NULL,(11) 33979000,(),smeceuazuldacordomar@prefeitura.sp.gov.br,NULL,NULL
1106,São Paulo,SP,-23.526968,-46.573394,SAO PAULO -  PENHA,CEU TIQUATIRA,Av Condessa Elizabeth Robiano,0,Penha,3074000,Vila Moreira,(11) 22270516,(),smeceutiquatira@prefeitura.sp.gov.br,NULL,NULL
283,Osasco,SP,-23.52935950,-46.78446950,OSASCO - CENTRO,POLO UAB - CHIQUINHA GONZAGA - OSASCO,Rua Marechal Rondon,263,Centro,6093020,Centro Municipal de Formação Continuada de Professores,(11) 21830949,(11) 21830920,uabosasco.valmir@gmail.com,uabosasco.secretaria@gmail.com,UAB-I
764,Votorantim,SP,-23.54166040,-47.44518980,VOTORANTIM - CENTRO,POLO DE APOIO PRESENCIAL UAB VOTORANTIM,Av. Vereador Newton Vieira Soares,291,Centro,18110-01,NULL,(15) 32472663,(),uabvotorantim@gmail.com,NULL,NULL
282,Jandira,SP,-23.54173100,-46.90855720,JANDIRA - JARDIM EUROPA,POLO UAB - JANDIRA,R Francisco Araújo Chaves,120,Jardim Europa,6626020,NULL,(11) 47892459,(11) 46195786,polouabdejandira@gmail.com,uabjandiracoord@gmail.com,NULL
1033,São Paulo,SP,-23.55051990,-46.63330940,SAO PAULO - JARDIM MORENO,CEU JAMBEIRO,Av Jose Pinheiro Borges,60,Guaianases- Jardim Moreno,84301810,NULL,(11) 29602055,(11) 29602057,smeceujambeiro@prefeitura.sp.gov.br,NULL,NULL
280,Itapevi,SP,-23.55173120,-46.94129090,ITAPEVI - COHAB/SETOR B,POLO UAB - ITAPEVI,Professor Irineu Chaluppe,65,Jardim Itapevi,6653180,NULL,(11) 41438400,(11) 41427854,sec.educacao@itapevi.sp.gov.br,uabitapevisp@gmail.com,NULL
1028,São Paulo,SP,-23.55176550,-46.52059610,SAO PAULO - VILA ARICANDUVA,CEU ARICANDUVA,Rua Olga Fabel Abarca,0,Jardim Santa Terezinha,3572020,NULL,(11) 27237549,(11) 27237548,smeuniceuaricanduva@prefeitura.sp.gov.br,uabceuaricanduva@gmail.com,NULL
305,Apucarana,PR,-23.55213760,-51.46042340,APUCARANA - CENTRO,POLO DE APOIO PRESENCIAL DE APUCARANA,Praça Rui Barbosa,12,Centro,86800970,NULL,(43) 34251603,(),sueligr@gmail.com,apucaranapolo@gmail.com,NULL
425,Congonhinhas,PR,-23.57045670,-50.55497190,CONGONHINHAS - CENTRO,UAB- CONGONHINHAS,Av. Dr. David Xavier da Silva,670,Centro,86320000,NULL,(43) 35541363,(43) 35541029,uabpolo@yahoo.com.br,saferap@hotmail.com,NULL
1095,São Paulo,SP,-23.580634,-46.523829,SAO PAULO - VILA FORMOSA,CEU FORMOSA,Rua Sargento Claudinei Evaristo Dias,10,Vila Formosa,3385150,NULL,(11) 22164622,(),smeceuformosa@prefeitura.sp.gov.br,NULL,NULL
279,Itapetininga,SP,-23.58909500,-48.04878460,ITAPETININGA - TABOAOZINHO,POLO CHOPIN TAVARES DE LIMA,Av. Dr. Ciro de Albuquerque,4750,Taboaozinho,18213615,NULL,(15) 32734590,() 32734238,uab@itapetininga.sp.gov.br,projeto@itapetininga.sp.gov.br,www.itapetininga.sp.gov.br
1018,São Paulo,SP,-23.59076740,-46.77331810,SAO PAULO - JARDIM ESMERALDA,CEU BUTANTA,Av. Engenheiro Heitor Antonio Eiras Garcia,1870,Jardim  Esmeralda,5588001,NULL,(11) 37324551,(11) 37324557,smeceubutanta@prefeitura.sp.gov.br,NULL,NULL
1034,São Paulo,SP,-23.59479000,-46.40570600,SAO PAULO - CIDADE TIRADENTES,CEU AGUA AZUL,Av dos metalurgicos,1262,cidade tiradentes,8471000,NULL,(11) 20164476,(11) 20164479,smeceuaguaazul@prefeitura.sp.gov.br,NULL,NULL
1107,São Paulo,SP,-23.602539,-46.449305,SAO PAULO - PARQUE BOA ESPERANCA,CEU SAO MATEUS,Rua Curumatim,201,Boa Esperança,8341240,NULL,(11) 27328161,(11) 27328162,smeuniceusaomateus@prefeitura.sp.gov.br,uniceusaomateus@gmail.com,NULL
1103,São Paulo,SP,-23.619706,-46.731745,SAO PAULO - PARAISOPOLIS,CEU PARAISOPOLIS,Rua Dr. José Augusto de Souza e Silva,0,Paraisópolis,5712040,NULL,(11) 35015666,(11) 35015660,smeceuparaisopolis@prefeitura.sp.gov.br,NULL,NULL
1100,São Paulo,SP,-23.620547,-46.456233,SAO PAULO - JARDIM PROMORAR,CEU SAO RAFAEL,Rua Cinira Apolônio,100,Promorar,8395320,Rio Claro,(11) 27521001,(),ceusaorafael@prefeitura.sp.gov.br,NULL,NULL
1025,São Paulo,SP,-23.62156820,-46.50118270,SAO PAULO - JARDIM SAO ROBERTO,CEU ROSA DA CHINA,Rua Clara Petrela,113,Jardim São Roberto,3978500,NULL,(11) 27012362,(11) 27012363,smeceurosadachina@prefeitura.sp.gov.br,rocad2016@gmail.com,NULL
1020,São Paulo,SP,-23.62175440,-46.58404490,SAO PAULO - SAO JOAO CLIMACO,CEU MENINOS,Rua Barbinos,111,Sao Joao Climaco,4240110,NULL,(11) 29452560,(11) 25592558,smeceumeninos@prefeitura.sp.gov.br,NULL,NULL
1099,São Paulo,SP,-23.641896,-46.607094,SAO PAULO - PARQUE BRISTOL,CEU PARQUE BRISTOL,Rua Professor Arthur Primaverissi,0,Parque Bristol,4177070,NULL,(11) 23341405,(),ceupqbristolgestao@prefeitura.sp.gov.br,NULL,NULL
1035,São Paulo,SP,-23.64624430,-46.74428540,SAO PAULO - VILA DAS BELEZAS,CEU CASA BLANCA,Rua João Damasceno,0,Vila das Belezas,5841160,NULL,(11) 55195216,(11) 55195217,smeuniceucasablanca@prefeitura.sp.gov.br,uab.ceucasablanca@gmail.com,NULL
1036,São Paulo,SP,-23.64703030,-46.77904300,SAO PAULO - PIRAJUSSARA,CEU CAMPO LIMPO,Av. Carlos Lacerda,678,Pirajussara,5789000,NULL,(11) 58434801,(11) 58434838,smeceucampolimpo@prefeitura.sp.gov.br,NULL,NULL
1057,Cianorte,PR,-23.667872,-52.628648,CIANORTE - ZONA 06,POLO UAB DE CIANORTE,Henrique Dias,211,Zona 6,87205030,Escola Municipal Lidia Usuy Ohi,(44) 36372887,(),lidiaohi@cianorte.pr.gov.br,NULL,NULL
179,Siqueira Campos,PR,-23.67365550,-49.79332790,SIQUEIRA CAMPOS - CENTRO,POLO DE APOIO PRESENCIAL AO ENSINO SUPERIOR DE SIQUEIRA CAMPOS - UAB,Rua Paraná,2095,Centro,84940-00,NULL,(43) 35713958,(),polouabsc@gmail.com,siqueiracampos@nutead.org,siqueiracampos.pr.gov.br/uab
1102,São Paulo,SP,-23.674991,-46.769235,SAO PAULO - CAPAO REDONDO,CEU CAPAO REDONDO,Rua Daniel Gran,0,Jardim Modelo,5867380,CEU - Capão Redondo - Prof. Dr. Celso Seixas Ribeiro Bastos,(11) 58738067,(11) 58678093,smeceucapaoredondo@prefeitura.sp.gov.br,NULL,NULL
442,Diadema,SP,-23.68899310,-46.62693670,DIADEMA - CENTRO,POLO DE APOIO PRESENCIAL DE DIADEMA,Rua Nossa Senhora das Vitórias.,249,Centro,9910140,NULL,(11) 40773550,(11) 996904111,mrcostabastos@gmail.com,polodiadema@gmail.com,www.uabdiadema.com.br
516,Itambé,PR,-23.69609430,-52.00035990,ITAMBE - PARQUE INDUSTRIAL,POLO DE APOIO PRESENCIAL DE ITAMBE,Rua Luis Fedrigo,3,Parque Industrial,87175000,NULL,(44) 32311366,(44) 32311592,uabitambe@hotmail.com,ivetebpereira@hotmail.com,NULL
1029,São Paulo,SP,-23.70016250,-46.69673560,SAO PAULO - INTERLAGOS,CEU CIDADE DUTRA,Av. Interlagos,7350,Interlagos,4777000,NULL,(11) 56681955,(11) 56681954,smeceucdedutra@prefeitura.sp.gov.br,NULL,NULL
1024,São Paulo,SP,-23.70893520,-46.63975500,SAO PAULO - BALNEARIO SAO FRANCISCO,CEU ALVARENGA,Estrada Alvarenga,3752,Balneário São Francisco- Pedreira,4474340,NULL,(11) 56722501,(11) 56722503,smeuniceualvarenga@prefeitura.sp.gov.br,uab.ceualvarenga@gmail.com,NULL
1096,São Paulo,SP,-23.735567,-46.780805,SAO PAULO - JARDIM ANGELA,CEU VILA DO SOL,Avenida dos Funcionários Públicos,369,Jardim Vera Cruz,4962000,No CEU Vila do Sol,(11) 33979800,(),smeceuviladosol@prefeitura.sp.gov.br,NULL,NULL
171,Cruzeiro do Oeste,PR,-23.74007930,-53.08889430,CRUZEIRO DO OESTE - CENTRO,POLO REGIONAL DE APOIO PRESENCIAL DA UAB - CRUZEIRO DO OESTE,AVENIDA PALMAS - ESQUINA COM A RUA FAXINAL,220,CENTRO,87400-00,NULL,(44) 36762093,(),florinda@cruzeirodooeste.pr.gov.br,florinda@cruzeirodooeste.pr.gov.br,WWW.CRUZEIRODOOESTE.PR.GOV.BR
1097,São Paulo,SP,-23.742584,-46.660848,SAO PAULO - PARQUE RESIDENCIAL COCAIA,CEU NAVEGANTE,Rua Maria Moassab Barbour,0,Cantinho do Céu - Grajaú,4849000,NULL,(11) 59765527,(11) 59765531,smeceunavegantes@prefeitura.sp.gov.br,NULL,NULL
455,Engenheiro Beltrão,PR,-23.74279490,-52.23371840,ENGENHEIRO BELTRAO - CENTRO,POLO UAB - ENGENHEIRO BELTRAO,Rua Clotario Portugal,115,Centro,87270000,NULL,(44) 35372642,(),polouabbeltrao@bol.com.br,NULL,NULL
744,Umuarama,PR,-23.76610640,-53.32061050,UMUARAMA - JARDIM SAO FERNANDES,POLO DE APOIO PRESENCIAL DE UMUARAMA,Rua Amaury Haruo Sunahara,2047,Jardim São Fernandes,87508176,NULL,(44) 39061076,(),uab@umuarama.pr.gov.br,uab.umuarama@hotmail.com,NULL
1098,São Paulo,SP,-23.767501,-46.700628,SAO PAULO - BARRO BRANCO,CEU TRES LAGOS,Estrada do Barro Branco,0,Jardim Três Corações,4852320,NULL,(11) 59765642,(11) 59765643,smeceutreslagos@prefeitura.sp.gov,NULL,NULL
173,Ibaiti,PR,-23.81244020,-50.30690880,IBAITI - S.JUDAS TADEU,POLO UAB - POLO DE APOIO PRESENCIAL AO ENSINO SUPERIOR A DISTANCIA DE IBAITI,Rua São Judas Tadeu,190,São Judas Tadeu,84900-00,Em frente a Rádio Colina,(43) 35465295,(),polouabibaiti@yahoo.com.br,NULL,NULL
1091,Japorã,MS,-23.82572400,-54.54372050,JAPORA - CENTRO,TEKOHA GUARANI POLO – EXTENSAO CHAMOI PO`I – JOAQUIM MARTINS,Comunidade do Sr Alexandre,0,Setor 02,79985000,NULL,(67) 81831733,(),joaquimguaraninhandeva@yahoo.com.br,NULL,NULL
1104,São Paulo,SP,-23.828173,-46.725143,SAO PAULO - JARDIM NOVO PARELHEIROS,CEU PARELHEIROS,Rua Pedro José de Borba,20,Jardim Novo Parelheiros,4890090,CEU - Parelheiros,(11) 59214479,(),smeceuparelheiros@prefeitura.sp.gov,NULL,NULL
437,Cubatão,SP,-23.88786550,-46.42573230,CUBATAO - VILA COUTO,POLO UAB CUBATAO,Rua Fernando Costa,1096,Vila Couto,11510310,Antiga Fábrica da Comunidade,(13) 33723436,(13) 981232564,uabpolocubatao@gmail.com,cp.cubatao.uab@gmail.com,www.uabcubatao.com.br
685,Santos,SP,-23.94055970,-46.32115180,SANTOS - VILA NOVA,POLO UAB-SANTOS,R. Sete de Setembro,34,Vila Nova,11013350,Colégio Santista,(13) 32321451,(13) 981170787,uabpolosantos@gmail.com,liancris@gmail.com,NULL
460,Faxinal,PR,-24.03451970,-51.30508510,FAXINAL - CENTRO,POLO UAB DE FAXINAL,AV. EUGÊNIO BASTIANI,984,CENTRO,86840000,NULL,(43) 34613076,(43) 34613507,uabfax@gmail.com,lenifax@gmail.com,NULL
478,Goioerê,PR,-24.16116170,-53.06739050,GOIOERE - CENTRO,POLO UAB - GOIOERE,Av Daniel Portela,1354,Centro,87360000,Próximo a rodoviária,(44) 35226005,(44) 39093048,sec.goio@gmail.com,alinebrandani@hotmail.com,NULL
627,Peruíbe,SP,-24.22907970,-46.99994710,PERUIBE - BALNEARIO STELLA MARIS,UAB POLO PERUIBE,Av. São João,635,Centro,11750000,"sala 2 Lote S/N, quadra 60",(13) 34558389,(13) 997126102,marizete.stos@gmail.com,NULL,NULL
837,Ivaiporã,PR,-24.26845060,-51.62022010,IVAIPORA - CENTRO,POLO UAB DE IVAIPORA,Praça da Independência,385,Centro,86870000,NULL,(43) 34722516,(),polouab3ivaipora@gmail.com,cid_depto@hotmail.com,NULL
731,Telêmaco Borba,PR,-24.33478300,-50.62079370,TELEMACO BORBA - NOSSA SENHORA DO PERPETUO SOCORRO-BNH,POLO UNIVERSITARIO DE APOIO PRESENCIAL DE  TELEMACO BORBA,Rua Guarani,555,Nossa Senhora do Perpétuo Socorro - BNH,84265150,Campus Universitário da UEPG,(42) 39041820,(),polo.uab.tb@gmail.com,NULL,NULL
1089,Iretama,PR,-24.33892170,-52.06392450,IRETAMA - CENTRO,POLO UAB IRETAMA,Av Paraná,87,Centro,87280000,Escola Municipal Maria de Lurdes Melo,(44) 35731273,(44) 35731351,uabiretama@gmail.com,carinafigueiredo@bol.com.br,NULL
531,Jaguariaíva,PR,-24.34397220,-49.73199250,JAGUARIAIVA - CIANE,POLO UAB - JAGUARIAIVA,Rua João Thon,0,Cianê,84200000,NULL,(43) 35351844,(43) 99251343,polouabjaguariaiva@gmail.com,NULL,NULL
595,Nova Santa Rosa,PR,-24.44205610,-53.93240480,NOVA SANTA ROSA - CENTRO,POLO DE NOVA SANTA ROSA,Avenida Tucunduva,1033,Centro,85930000,Escola Municipal Getúlio Vargas,(45) 32531646,(),ani_kamien@hotmail.com,NULL,NULL
273,Apiaí,SP,-24.44717020,-48.83974030,APIAÍ - CENTRO,POLO DE APOIO PRESENCIAL DA UAB EM APIAI,Rua Amarílio Gorgonha da Silva,112,Centro,18320000,Centro de Lazer Profa. Janete Dias Batista Vilella,(15) 35523461,(15) 997094446,polouab.apiai@gmail.com,osvaldo.junior@educacao.sp.gov.br,facebook/polouabapiai
175,Nova Tebas,PR,-24.44872430,-51.95801640,NOVA TEBAS - CENTRO,POLO UAB EM NOVA TEBAS,Rua Alexandre Magno,783,centro,85250000,NULL,(42) 36431101,(),cas.turina@hotmail.com,NULL,NULL
872,Ubiratã,PR,-24.52904190,-53.00291690,UBIRATA - JARDIM SAO PAULO,POLO DE UBIRATÃ,Prolongamento da Avenida Yolanda Loureiro de Carvalho,1820,Jardim São Paulo,85440000,NULL,(44) 35435828,(44) 35432591,coordenacaopoloubirata@hotmail.com,vilma.penido@hotmail.com,NULL
1085,Cândido de Abreu,PR,-24.574249,-51.34289,CANDIDO DE ABREU - CENTRO,POLO DA UAB DE CANDIDO DE ABREU,Av. Paraná,13,centro,84470000,ao Lado da Prefeitura Municipal,(43) 34761346,(),polouab@candidodeabreu.pr.gov.br,NULL,NULL
858,Reserva,PR,-24.67908710,-50.92892460,RESERVA - CENTRO,POLO UAB DE RESERVA,Rua Ari Borba Carneiro,927,Centro,84320000,Anexo a Escola Municipal Coronel Rogério Borba,(42) 32761544,(42) 99649529,polouabdereserva@gmail.com,professoraregiane11@hotmail.com,NULL
611,Palmital,PR,-24.87248980,-52.23371840,PALMITAL - VILA PARQUE JUNIOR,POLO DE APOIO PRESENCIAL/UAB DE PALMITAL,R. Parigot de Souza,0,Vila Parque Junior,85270000,Escola Municipal K. Costa,(42) 36571989,(42) 36571644,polouab_ptal@hotmail.com,NULL,NULL
405,Cerro Azul,PR,-24.89289670,-49.24359980,CERRO AZUL - CENTRO,CENTRO COMUNITARIO BERNARDO VON MULLER,Rua Deputado Aníal Cury,0,Centro,83570000,NULL,(41) 36621641,(),jincaiblum@yahoo.com.br,municip@terra.com.br,NULL
504,Ipiranga,PR,-24.99988670,-50.55497190,IPIRANGA - CENTRO,POLO UAB  IPIRANGA,Rua João Ribeiro da Fonseca,74,Centro,84450000,NULL,(42) 32421596,(42) 32421897,ipiranga@ead.uepg.br,elediane.l@hotmail.com,NULL
640,Ponta Grossa,PR,-25.09852060,-50.14698230,PONTA GROSSA - UVARANAS,ESCOLA MUL. CEL. CLAUDIO GONCALVES GUIMARAES,Rua Bonifácio Ribas,240,Uvaranas,84025-15,Escola Municipal Coronel Cláudio Guimarães,(42) 39011669,(),lucimaraglap@hotmail.com,pontagrossa@nutead.com,NULL
854,Prudentópolis,PR,-25.10231120,-51.13763170,PRUDENTOPOLIS - BARRO PRETO,POLO UAB PRUDENTÓPOLIS,Avenida São João,692,Barro Preto,84400000,NULL,(42) 34466506,(42) 999214399,uabprudentopolis@gmail.com,nilce.antunes@yahoo.com.br,NULL
852,Céu Azul,PR,-25.14665980,-53.84664400,CEU AZUL - CENTRO,POLO UAB DE CEU  AZUL,Rua Professor Daniel Muraro,958,Centro,85840000,NULL,(45) 32662502,(),poloceuazul@gmail.com,educacao@netceu.com.br,NULL
419,Colombo,PR,-25.36075750,-49.18684520,COLOMBO - JD. NOSSA SENHORA DE FATIMA,Polo Profº Altair da Silva Leme,Rua Dorval Ceccon,664,Jd Nossa Senhora de Fátima,83405030,Colombo Park Shopping - 2o andar,(41) 36755090,(),uabcolombo@gmail.com,srsbrunoro@gmail.com,NULL
1131,Guarapuava,PR,-25.39072140,-51.46280970,GUARAPUAVA - INDUSTRIAL,POLO UAB GUARAPUAVA,Vereador Oswaldo Camilo Mendes,200,Industrial,85100-97,Escola total- Esc.Mun. Iná Ribas Carli,(42) 36241643,(42) 999211562,polouabguarapuava@gmail.com,tatyfranke@hotmail.com,NULL
553,Laranjeiras do Sul,PR,-25.40795040,-52.41347460,LARANJEIRAS DO SUL - ESTRADA PARA PORTO BARREIRA,LARANJEIRAS DO SUL,Oscar Pereira Guedes,1,Vila Albert,85303820,NULL,(42) 36353990,(),pololaranjeiras@yahoo.com.br,NULL,NULL
1056,Curitiba,PR,-25.419805,-49.266539,CURITIBA - ALTO DA GLÓRIA,POLO DE APOIO PRESENCIAL UAB CURITIBA,Av. João Gualberto,623,Alto da Glória,80030000,"Edifício Delta, 7.º andar, Torre B - Pref. Mun. de Curitiba-PR",(41) 32251601,(41) 985212180,polouabcuritiba@edu.curitiba.pr.gov.br,polouabctba@gmail.com,NULL
1356,Campo Largo,PR,-25.460007,-49.528994,CAMPO LARGO - CENTRO,Polo UAB Campo Largo,Oswaldo Cruz,1260,Centro,83601150,NULL,(41) 32915068,(41) 32921571,uab@campolargo.pr.gov.br,claudianekupka@gmail.com,NULL
610,Palmeira,PR,-25.47437350,-50.05984500,PALMEIRA - CENTRO,POLO DA UAB DE PALMEIRA,Rua Coronel Pedro Ferreira,223,Centro,84130000,NULL,(42) 39095048,(),palmeira@nutead.org.br,Palmeira_uab@hotmail.com,NULL
172,Foz do Iguaçu,PR,-25.51633560,-54.58537640,FOZ DO IGUACU - PARQUE TECNOLOGICO ITAIPU,POLO UAB - FOZ DO IGUACU,Av. Tancredo Neves,6731,Itaipu Binacional,85867-97,Parque Tecnológico Itaipu,(45) 35767030,(),edilsonbalzzan@hotmail.com,NULL,www.pti.org.br/uab
176,Paranaguá,PR,-25.54515220,-48.52717350,PARANAGUÁ - JARDIM GUARAITUBA,POLO UAB -  POLO DE APOIO PRESENCIAL AO ENSINO SUPERIOR A DISTANCIA DE PARANAGUA,Rua Capiberibe,0,Jardim Guaraituba,83209330,Escola Municipal Nascimento Junior,(41) 34206033,(41) 988571623,uabpoloparanagua@hotmail.com,dudao_xn@hotmail.com,NULL
1065,Pontal do Paraná,PR,-25.63549050,-48.46873110,PONTAL DO PARANA - BALNEARIO ATAMI,POLO DE APOIO PRESENCIAL DE PONTAL DO PARANA,Avenida Espanha,0,Balneário Atami,83255-00,Escola Municipal Artur Tavares,(41) 39727099,(),uabpontal@gmail.com,NULL,NULL
552,Lapa,PR,-25.73468500,-49.77287570,LAPA - CENTRO,POLO UAB LAPA / PARANA,RUA EUFRASIO CORTES,228,CENTRO,83750000,NULL,(41) 36220312,(41) 988226026,uab.educa@lapa.pr.gov.br,polouablapapr@yahho.com.br,NULL
855,Dois Vizinhos,PR,-25.77173530,-53.08889430,DOIS VIZINHOS - CENTRO,POLO UAB SECRETARIA MUNICIPAL DE EDUCACAO,Avenida Dedi Barichelo Montagner,520,Centro Norte,85660000,Anexo a Secretaria Municipal de Educação,(46) 35361538,(46) 99160886,educacao@doisvizinhos.pr.gov.br,NULL,NULL
631,Pinhão,PR,-25.81781860,-51.64128260,PINHAO - CENTRO,POLO UNIVERSITARIO DE PINHAO,Avenida Trifon Hanycz,244,Centro,85170000,NULL,(42) 36771891,(),uabuniversidade@yahoo.com,polopho2012@gmail.com,NULL
853,São Mateus do Sul,PR,-25.92436590,-50.47217360,SAO MATEUS DO SUL - CENTRO,POLO UAB DE SãO MATEUS DO SUL,Av. Ozy Mendonça de Lima,255,Centro,83900000,NULL,(42) 35326753,(42) 88315926,polouab.sms@gmail.com,leticia_1901@yahoo.com.br,polouabdesaomatheusdosul.blogspot
1066,Santo Antônio do Sudoeste,PR,-26.07176760,-53.62852440,SANTO ANTONIO DO SUDOESTE - CENTRO,POLO DA FRONTEIRA - UNIVERSIDADE ABERTA DO BRASIL DE SANTO ANTONIO DO SUDOESTE,Rua Presidente Vargas,22,Princesa Izabel,85710000,NULL,(46) 35638043,(46) 35638041,uab.sas1@gmail.com,simonisavi@yahoo.com.br,NULL
664,Rio Negro,PR,-26.11305930,-49.67072050,RIO NEGRO - SEMINARIO,Daniely Gonçalves,Rua Juvenal Ferreira Pinto,2070,Seminário,83880-00,NULL,(47) 88163669,(47) 47881636,rionegro.educacao.uab@gmail.com,danielycorgon@gmail.com,NULL
383,Canoinhas,SC,-26.18870840,-50.55497190,CANOINHAS - CENTRO,POLO DE APOIO PRESENCIAL EAD/UAB DE  CANOINHAS,Rua Bernardo Olsen,400,Centro,89460000,Anexo a Escola Estadual de Educação Básica Santa Cruz,(47) 36226310,(47) 96729615,polodecanoinhas@gmail.com,soniasacheti@gmail.com,NULL
345,Bituruna,PR,-26.19137440,-51.55707260,BITURUNA - CENTRO,BITURUNA,Rua Maria Rosa Ramos Nunes,35,Centro,84640000,NULL,(),(),uab@bituruna.pr.gov.br,NULL,NULL
178,Pato Branco,PR,-26.22972020,-52.67113560,PATO BRANCO - SAIDA PARA BOM SUCESSO DO SUL,POLO REGIONAL DE ENSINO SUPERIOR DE PATO BRANCO - UAB,Via do Conhecimento - PRT469 Km 01,0,Saida para Bom Sucesso do Sul,85503390,Em frente UTFPR - Caixa Postal 133,(46) 39021321,(),admuab@hotmail.com,caciawebber@gmail.com,NULL
463,Flor da Serra do Sul,PR,-26.24208070,-53.23959730,FLOR DA SERRA DO SUL - CENTRO,POLO DE APOIO PRESENCIAL DE FLOR DA SERRA DO SUL,Rua Cristiano Bender,419,Centro,85618000,NULL,(46) 35651270,(),oscar_rombaldi@hotmail.com,NULL,NULL
793,Joinville,SC,-26.29885730,-48.84519430,JOINVILLE - CENTRO,POLO UAB DE JOINVILLE,Rua Luiz Niemeyer,54,Centro,89201060,Predio do Banco do Brasil 8º andar,(47) 34452839,(47) 991070191,polouabjoinville@gmail.com,manoel.lasta@gmail.com,NULL
1187,Jaraguá do Sul,SC,-26.480083,-49.095297,JARAGUÁ DO SUL - NOVA BRASÍLIA,Polo UAB de Jaraguá do Sul,Rua Lourenço Kanzler,177,Nova Brasília,89252240,NULL,(47) 33710159,(47) 99557021,id7996@jaraguadosul.sc.gov.br,NULL,NULL
1173,Quilombo,SC,-26.722404,-52.716152,QUILOMBO - CENTRO,Polo UAB de Quilombo,Rua Santo Ângelo,1227,Centro,89850000,escola Jurema Savi Milanes,(49) 33462450,(49) 84213463,gabinetequilombo@qbo.sdr.sc.gov.br,andreiavitoria@qbo.sdr.sc.gov.br,NULL
707,São Miguel do Oeste,SC,-26.72470250,-53.49865860,SAO MIGUEL DO OESTE - SAO GOTARDO,POLO UAB REGIONAL DE SAO MIGUEL DO OESTE,Rua São Cristóvão,700,São Gotardo,89900-00,-,(49) 36313268,(49) 999129092,polouabsmo@hotmail.com,nanivolpi@yahoo.com.br,NULL
1359,Balneário Piçarras,SC,-26.734549,-48.690743,BALNEÁRIO PIÇARRAS - ITACOLUMI,Polo UAB Balneário Piçarras,Avenida Victor Zimmermann,0,Itacolumi,88380000,NULL,(47) 33454399,(47) 84569475,sedepedagogico.uab@picarras.sc.gov.br,NULL,NULL
877,Caçador,SC,-26.74743620,-51.05406740,CACADOR - CENTRO,CACADOR,Rua Nereu Ramos,273,Centro,89500000,Escola Estadual Paulo Schieffler,(49) 35630577,(49) 35676531,registro10@sed.sc.gov.br,uabpolocacador@hotmail.com,NULL
