id,cidade,uf,lat,lng,nome_polo,nome_fantasia,logradouro,numero,bairro,cep,complemento,telefone1,telefone2,e-mail,email2,url
1627,Açailândia,MA,-49634,-474.91,AÇAILÂNDIA - JARDIM GLÓRIA,TANIA REGINA ZANELLA HORSTER,Avenida Contorno,s/n,Jardim Glória,65930000,"Quadra 38, Lote 1",(99) 35380062,(99) 991440506,taniarzanella@hotmail.com,taniarzanella@gmail.com,
955,Acaraú,CE,,,ACARAU - CENTRO,Polo UAB - ACARAÚ,Av. João Jaime Ferreira Gomes,547,Centro,62580000,Escola de Educação Infantil Profa. Teresa de Jesus Silva,(88) 997131594,(88) 997131594,polouabacarau@gmail.com,nadiaaraujo6@yahoo.com.br,
1,Acrelândia,AC,-10.073388,-670.54663,ACRELANDIA - CENTRO,CEDUP (CENTRO ESTADUAL DE EDUCACAO PERMANENTE),Rua Denilson Rogério,951,Centro,69945000,,(68) 32351461,() ,ENSINO.EDUCACAO@AC.GOV.BR,,
54,Afonso Cláudio,ES,-20.073638,-41.126436,AFONSO CLAUDIO - CUSTODIO LEITE RIBEIRO,CENTRO MUNICIPAL DE EDUCACAO ABERTA E A DISTANCIA DE AFONSO CLAUDIO - UAB,Alameda Nossa Senhora de Lourdes,111,Custodio Leite RIbeiro,29600000,,(27) 37352075,(27) 37351390,polouab@hotmail.com,vargasbal@yahoo.com.br,
787,Afrânio,PE,-8.5144312,-41.0079509,AFRANIO - CENTRO,POLO DE AFRANIO,Avenida Dom Malan,0,Centro,56369000,,(87) 38681134,(87) 38681054,polouabafranio@gmail.com,,
997,Água Boa,MT,-14.043743,-521.569159,AGUA BOA - TROPICAL,POLO DE AGUA BOA,Rua 1,2301,Jardim Tropical,78635000,,(66) 34686400,() ,uabaguaboa@hotmail.com,,
154,Água Branca,PI,-5.893223,-42.633364,AGUA BRANCA - CENTRO,POLO UAB - UNIVERSIDADE ABERTA DO PIAUI - AGUA BRANCA,Avenida José Miguel,0,Centro,64640000,,(86) 32821425,() ,aguabrancauapi@yahoo.com.br,ceicapacheco@bol.com.br,www.uapi.ufpi.br
112,Água Clara,MS,-20.44573,-52.879448,AGUA CLARA - JARDIM DAS PALMEIRAS,POLO UAB - AGUA CLARA,Rua Alberico Barbosa de Souza,39,Jardim das Palmeiras,79680000,,(67) 32393249,(67) 32391693,mfqac@hotmail.com,marcelosilvaead@hotmail.com,
893,Águas Belas,PE,-9.117685,-37.114671,AGUAS BELAS - CENTRO,ESCOLA  JOAO RODRIGUES CARDOSO,Terceira travessa da rua coronel Alfredo Duarte,0,Centro,55340000,Escola Estadual João Rodrigues Cardoso,(87) 37753927,(87) 991437799,polo.aguas.belas@ead.ifpe.edu.br,anaesmeralda_espinhara@hotmail.com,
921,Águas Formosas,MG,-17.081566,-40.931564,AGUAS FORMOSAS - CENTRO,POLO UAB DE APOIO PRESENCIAL DE AGUAS FORMOSAS,Travessa São Pedro,185,centro,39880000,Escola Municipal São Vicente de Paulo,(33) 36112404,() ,agnescristhina.26@gmail.com,,
73,Águas Lindas de Goiás,GO,-15.732519,-48.274447,AGUAS LINDAS DE GOIAS - MANSOES OLINDA,POLO UAB - AGUAS LINDAS DE GOIAS,Rua 13 - Quadra A1 lote 02,2,Mansões Olinda,72910000,,(00) 00000000,() ,uabaguaslindas@gmail.com,profrogedu@yahoo.com.br,
230,Agudo,RS,-29.646256,-53.25312,AGUDO - CENTRO,POLO DE APOIO PRESENCIAL AO ENSINO SUPERIOR DE AGUDO - UAB,Av Borges de Medeiros,1194,Centro,96540000,,(55) 32651144,(55) 32652021,uabpoloagudo@gmail.com,claudetehoffmann@yahoo.com.br,
135,Alagoa Grande,PB,-7.07831,-35.59525,ALAGOA GRANDE - CONJUNTO CEHAP I,POLO UAB - ALAGOA GRANDE,Rua Francisco Carlos da Silva,,Conjunto CEHAP I,58388000,CAIC,(83) 32731299,(83) 32732006,polouabalagoagrande@gmail.com,rafael@df.ufcg.edu.br,
294,Alegre,ES,-20.70897,-41.51937,ALEGRE - CENTRO,POLO DE ALEGRE,Alto Universitário,0,Centro,29500000,Campus Universitário da UFES,(28) 35528989,() ,polouabalegre@gmail.com,polouabalegre@yahoo.com.br,
155,Alegrete do Piauí,PI,-72.4369,-408.57845,ALEGRETE DO PIAUI - VILA,POLO UAB - ALEGRETE DO PIAUI,Rua Manoel Sanches Leal,0,Vila,64675000,,(89) 34361201,(89) 34361201,polo.uab.alegrete@gmail.com,,
74,Alexânia,GO,-16.059013,-48.504374,ALEXANIA - FAZENDA CACHOEIRA,"POLO UAB - ALEXANIA ""CORA CORALINA""",GO 139 KM 2 - Fazenda Cachoeira,0,Zona Rural de Alexânia,72930-000,Escola Municipal Agrícola Lothar Schiller,() ,() ,uab.alexania@gmail.com,,portal.alexania.go.gov.br/polouab
296,Almenara,MG,-16.176755,-40.6974336,ALMENARA - CENTRO,POLO ALMENARA,Rua Avelino Nascimento,13,Centro,39900-000,,(33) 37216279,() ,uabalmenara2008@yahoo.com.br,campus.almenara@unimontes.br,
297,Altamira,PA,-3.197903,-52.210105,ALTAMIRA - BRASILIA,POLO DE APOIO PRESENCIAL DE ALTAMIRA,Rua Antônio Vieira,122,Brasília,68377-000,Escola Municipal Dom Clemente Geiger,(93) 35157704,(93) 991722353,polouabaltamira@gmail.com,marienefeitosa@hotmail.com,
85,Alterosa,MG,-21.258394,-46.140991,ALTEROSA - CRUZEIRO,POLO DE EDUCACAO A DISTANCIA DA BAIXA MOGIANA - ALTEROSA - UAB,Rua José Joaquim Terra,65,Cruzeiro,37145000,,(35) 32941963,() ,poloead@alterosa.mg.gov.br,,
215,Alto Alegre,RR,,,ALTO ALEGRE - CENTRO,POLO UAB - ALTO ALEGRE,avenida Primeiro de Julho,0,centro,69350-000,,(95) 32631291,() ,polo.altoalegre@yahoo.com.br,,
299,Alto Araguaia,MT,-17.315346,-53.210999,ALTO ARAGUAIA - CENTRO,POLO DE ALTO ARAGUAIA,Rua Rio Branco,391,Centro,78780-000,,(66) 34811667,(66) 34811731,coord.aaraguaia.dead@unemat.br,coord.aaraguaia.dead@unemat.br,
75,Alto Paraíso de Goiás,GO,-14.136092,-47.514496,ALTO PARAISO DE GOIAS - CENTRO,POLO UAB ALTO PARAISO DE GOIAS,Rua São Jorge Quadra 26 Parte da APM,0,Centro,73770000,,(62) 34461371,(62) 34462053,coord.uab.alto.go@gmail.com,martauabunb@gmail.com,
300,Alto Parnaíba,MA,-9.1068141,-45.9338073,ALTO PARNAIBA - SANTA CRUZ,POLO PRESENCIAL DA UAB RIO PARNAIBA,Rua Prefeito Elias Rocha,55,Santa Cruz,65810000,,(89) 35697604,() ,pedrouab@hotmail.com,pedrofolha5@hotmail.com,
857,Alvorada,TO,-12.477033,-491.23596,ALVORADA - CENTRO,POLO DE EDUCAçãO A  DISTâNCIA DE ALVORADA,Av. Peixe,7,Centro,77480000,Jorge Figueiras,(63) 33532481,(63) 99658864,uabalvorada@seduc.to.gov.br,,
216,Amajari,RR,,,AMAJARI - CENTRO,POLO UAB - AMAJARI,Av. Tepquen,0,CENTRO,69343000,,(95) 35931043,(95) 35931101,luneivanobre@hotmail.com,mengolu@hotmail.com,
302,Amargosa,BA,-13.032133,-39.606137,AMARGOSA - CENTRO,POLO UAB - AMARGOSA,Rua Gilda Ferreira,307,centro,4500000,,(75) 36341030,(75) 36343977,uab@amargosa.ba.gov.br,uabamargosa@hotmail.com,
288,Ananás,TO,-6.365448,-48.072912,ANANAS - CENTRO,POLO UAB - ANANAS,Rua João Batista,0,Centro,77890000,praça da Bandeira,(63) 34421529,(63) 34421232,puabananas@hotmail.com,joab_gomes10@hotmail.com,
303,Anápolis,GO,-16.337602,-48.944522,ANAPOLIS - JUNDIAI,POLO ANAPOLIS,Avenida São Francisco,880,Jundiaí,75110810,Centro de referência e Formação do Profissionais da Educação,(62) 39021458,(62) 39021183,uabanapolis@gmail.com,eunicemmk@gmail.com,
304,Anapurus,MA,,,ANAPURUS - AEROPORTO,POLO DE APOIO PRESENCIAL UAB DONA NERCI ALVES MONTELES ANAPURUS-MA.,Rua Maria Pires Leite,0,Aeroporto,65525-000,Complexo Educacional Dona Nerci Alves Monteles,() ,(98) 34811153,polouama@gmail.com,acelys.anyandy@gmail.com,
1181,Andrelândia,MG,-21.745159,-443.25723,ANDRELÂNDIA - SANTOS DUMONT,Polo UAB de Andrelândia,Rua Dr. Walter Octacílio Silva,1400,Santos Dumont,37300000,,(35) 33251146,(35) 84467651,polouab@andrelandia.mg.gov.br,,
180,Angra dos Reis,RJ,-22.993494,-44.237283,ANGRA DOS REIS - JACUECANGA,POLO UAB - ANGRA DOS REIS,Av dos Trabalhadores,179,Jacuecanga,23914360,Polo Universitaio Jair Travasso,(24) 33667128,(24) 33667137,poloangracederj@gmail.com,,
978,Anísio de Abreu,PI,-9.188965,-43.047138,ANISIO DE ABREU - CENTRO,POLO DE ANISIO DE ABREU,Rua Mnoel Ribeiro da Silva,0,Esperança,64780-000,,(86) 32163393,(86) ,supes.seduc@gmail.com,,
76,Aparecida de Goiânia,GO,-16.73479,-49.257831,APARECIDA DE GOIANIA - VILA BRASILIA,CENTRO MUNICIPAL DE EDUCACAO PROFISSIONAL - APARECIDA DE GOIANIA - UAB,"Av. Rudá esquina com Rua Pindorama, quadra 37 A Lote 1/2",0,Vila Brasilia,74950760,,(62) 35454818,(62) 35454817,marleneuabaparecidagyn@gmail.com,cmepuab@gmail.com,
273,Apiaí,SP,,,APIAÍ - CENTRO,POLO DE APOIO PRESENCIAL DA UAB EM APIAI,Rua Amarílio Gorgonha da Silva,112,Centro,18320000,Centro de Lazer Profa. Janete Dias Batista Vilella,(15) 35523461,(15) 997094446,polouab.apiai@gmail.com,osvaldo.junior@educacao.sp.gov.br,facebook/polouabapiai
305,Apucarana,PR,-23.552372,-51.461278,APUCARANA - CENTRO,POLO DE APOIO PRESENCIAL DE APUCARANA,Praça Rui Barbosa,12,Centro,86800970,,(43) 34251603,() ,sueligr@gmail.com,apucaranapolo@gmail.com,
38,Aracati,CE,,,ARACATI - AEROPORTO,POLO UAB - ARACATI,BR 304 - KM 44,200,Aeroporto,62800-000,E. E. F. Antônio Monteiro,(88) 34216522,() ,joseni@centec.org.br,josenimonteiro.uab@gmail.com,
39,Aracoiaba,CE,-4.49045,-38.67765,ARACOIABA - CONJUNTO SOLON LIMAVERDE,POLO UAB - ARACOIABA,Av. Manoel Batista da Silva,0,Conjunto Solon Lima Verde,62750000,,(85) 33375085,() ,cvt_aracoiaba@centec.org.br,uabpoloaracoiaba@gmail.com,uab.poloaracoiaba@centec.org.br
55,Aracruz,ES,-19.81952,-40.19097,ARACRUZ - CENTRO,POLO DE APOIO PRESENCIAL DA UAB E CENTRO DE FORMACAO DE PROFESSORES JOSE MODENESE - ARACRUZ,Rua General Aristides Guaraná,23,Centro,29190050,,(27) 32707470,() ,uab.aracruz@gmail.com,coordenacaouab.acz@gmail.com,
86,Araçuaí,MG,-16.851475,-42.068271,ARACUAI - CENTRO,CAED - ARACUAI - UAB,Praça Olegario Maciel,32,Centro,39600000,,(33) 37314447,() ,poloaracuai@yahoo.com.br,,
308,Araguacema,TO,-08.809899,-495.56525,ARAGUACEMA - CENTRO,POLO DE EDUCAçãO A DISTâNCIA DE ARAGUACEMA,"Rua Rui Barbosa, quadra 37 lotes 12/13",0,Centro,77690000,,(63) 84193133,() ,uabaraguacema@tecnologia.to.gov.br,tialeilaaraguacema@hotmail.com,
860,Araguaína,TO,-7.31139,-48.62113,ARAGUAINA - CIMBA,POLO UAB DE ARAGUAINA,RUA PARAGUAI ESQ RUA UXIRAMES S/N,S/S,CIMBA,77814970,,(63) 34165641,(63) 992038520,uabaraguaina@seduc.to.gov.br,susiefernandes@uft.edu.br,http://www.site.uft.edu.br/campi/araguaina/araguaina.html
87,Araguari,MG,-18.649773,-48.207773,ARAGUARI - FATIMA,POLO DE APOIO PRESENCIAL DE ARAGUARI - UAB,Praça Augusto Diniz,55,Fátima,38442-148,-,(34) 32462221,(34) 36903290,poloaraguari@gmail.com,,
310,Araguatins,TO,-5.647051,-48.123688,ARAGUATINS - NOVA ARAGUATINS,POLO DE EDUCAçãO A DISTâNCIA DE ARAGUANTINS,Rua-06,,Nova Araguatins,7795000,Centro de Ensino Antonia Milhome,(63) 34742594,(63) 34741114,marcello_bmiranda@hotmail.com,uabaraguatins@tecnologia.to.gov.br,
1090,Arapongas,PR,,,ARAPONGAS - CENTRO,POLO UAB ARAPONGAS,Rua Pavão,26,Centro,86701-290,Escola Municipal Antonica Giroldo Franciosi,(43) 39021103,() ,sedesarap@yahoo.com.br,,
311,Araranguá,SC,-28.93954,-49.51119,ARARANGUA - NOVA DIVINEIA,POLO UAB - ARARANGUA,Rua Salvato Palatini,0,Nova Divinéia,88905226,Antiga Escola Munc. Nova Divinéia,(48) 35270966,() ,edione.adm@gmail.com,ararangua@ead.ufs.br,
313,Araras,SP,-22.36396,-47.379004,ARARAS - CENTRO,POLO UAB - ARARAS,Av. Nestlé,58,Centro,13601005,,(19) 35479696,() ,uabararas@gmail.com,educação@araras.sp.gov.br,
314,Arari,MA,-3.4540396,-44.7804209,ARARI - CENTRO,POLO DE APOIO PRESENCIAL UAB - ARARI,Rua 31 de Março,0,Centro,65480-000,Colégio Comercial de Arari,(98) 34531976,(98) 91517882,janaildy@hotmail.com,jjdutrab@hotmail.com,
136,Araruna,PB,-6.5282628,-35.7401687,ARARUNA - CENTRO,POLO UAB - ARARUNA,Rua Fausto Herminio de Araújo,0,Centro,58233000,Anexo da Igreja Matriz,(83) 33731118,(83) 33731010,polo.ararunapb@gmail.com,luciatbrito@hotmail.com,
264,Arauá,SE,-11.266935,-37.622689,ARAUA - CENTRO,POLO DA UAB JOALDO COSTA CARVALHO - ARAUA,Rua José Dias Filho - Conjunto Alzira Costa,0,Centro,49220-000,ANTIGA ESCOLA ESTADUAL JOALDO COSTA CARVALHO,(79) 35471756,() ,poloaraua.ufs@gmail.com,nubia_medeiro@hotmail.com,www.poloarauaufs.blogspot.com
315,Araxá,MG,-19.59044,-46.930774,ARAXA - SANTA RITA,POLO UAB_ARAXA,Av Hítalo Ros,0,Santa Rita,38181419,Prédio do SESI/SENAI,(34) 36917043,(34) 36917110,uabpoloaraxa@araxaeduca.mg.gov.br,polouabaraxa@gmail.com,
1007,Arenápolis,MT,-14.4615758,-56.8422541,ARENAPOLIS - VILA NOVA,POLO ARENAPOLIS,Rua Castelo Branco,0,Vila Nova,78420000,,(65) 33431465,() ,marcyapp@hotmail.com,,
1052,Aripuanã,MT,,,ARIPUANA - CENTRO,prefeitura municipal de aripuanã,Rua Pastor Alfredo Nogueira,607,Centro,78325-000,,(66) 35653900,() ,,,
211,Ariquemes,RO,-9.9013825,-63.0343811,ARIQUEMES - SETOR INSTITUCIONAL,CENTRO DE EDUCACAO A DISTANCIA DE ARIQUEMES - POLO DE APOIO PRESENCIAL UAB,Avenida Tancredo Neves,3450,Setor Institucional,76872848,Campo Universitario Ariquemes,(69) 35363209,(69) 35353563,uab.ariquemes.ro@gmail.com,unir.campusariquemes@gmail.com,www.unir.br
317,Arraias,TO,-12.920758,-46.948309,ARRAIAS - CENTRO,POLO UAB - ARRAIAS,Av. Universitária,0,Centro,77330000,Universidade Federal de Tocantins em Arraias,(63) 36531501,() ,,,
231,Arroio dos Ratos,RS,-30.097327,-517.293617,ARROIO DOS RATOS - CENTRO,POLO UAB - ARROIO DOS RATOS,Av. João Pereira da Silva,550,Centro,96740000,,(51) 36563087,() ,prefeito@arroiodosratos.rs.gov.br,,
318,Assaí,PR,,,ASSAI - CENTRO,POLO UAB -POLO PRESENCIAL DE APOIO AO ENSINO A DISTANCIA DE ASSAI,R. Manoel Ribas,1103,Centro,86220000,Colegio Estadual Barão do Rio Branco,(43) 32621938,() ,cidalima.uab@pmassai.com.br,,
169,Astorga,PR,-23.23878,-51.659829,ASTORGA - VILA SAMUEL,POLO MUNICIPAL DE APOIO PRESENCIAL EAD-UAB-ASTORGA,Paulo Tadashi Satomi,581,Vila Samuel,86730000,Escola Municipal Antenor Balarotti,(44) 32346422,() ,uabpoloastorga@hotmail.com,adrianacheron01@hotmail.com,
56,Baixo Guandu,ES,-19.516147,-410.174043,BAIXO GUANDU - CENTRO,POLO UAB - BAIXO GUANDU,Av. 10 de Abril,219,Centro,29730000,Centro Educacional Adventista,(27) 37322047,(27) 37324580,polouabbaixoguandu@gmail.com,,
1359,Balneário Piçarras,SC,-26.735358,-486.94520,BALNEÁRIO PIÇARRAS - ITACOLUMI,Polo UAB Balneário Piçarras,Avenida Victor Zimmermann,0,Itacolumi,88380000,,(47) 33454399,(47) 84569475,sedepedagogico.uab@picarras.sc.gov.br,,
232,Balneário Pinhal,RS,-30.291974,-50.257634,BALNEARIO PINHAL - DISTRITO DE MAGISTERIO,POLO DE EDUCAÇÃO SUPERIOR DO BALNEARIO PINHAL - UABBP,RUA SÃO GERÔNIMO,826,DISTRITO DO MAGISTÉRIO,95599-000,,(51) 36862728,(51) 36862985,polo_uab@balneariopinhal.rs.gov.br,polo.bpinhal.uab@gmail.com,
274,Bálsamo,SP,-20.735315,-49.586854,BALSAMO - CENTRO,POLO UAB - BALSAMO,Rua Aurora Soares Geraldes,419,Centro,15140000,,(17) 32641278,(17) 32641571,educbalsamo@terra.com.br,juliomartiness@hotmail.com,uab.balsamo
323,Bambuí,MG,-20.01020,-45.981512,BAMBUI - CENTRO,POLO UAB DE BAMBUI,R. Padre João Veloso,237,centro,38900000,,(37) 34315274,(37) 34315180,polouabbambui@gmail.com,amjcoelho@yahoo.com.br,
324,Bandeirantes,PR,-23.112377,-503.69548,BANDEIRANTES - VILA MORETI,UAB - BANDEIRANTES,Rua dos Expedicionários,160,Vila Moretti,86360000,Escola Municipal Santa Terezinha,(43) 35422367,(43) 996072522,bandeirantes@ead.uepg.br,claudiauab@yahoo.com.br,
939,Barão de Cocais,MG,-19.943816,-43.49413,BARAO DE COCAIS - CIDADE NOVA,POLO UAB DE APOIO PRESENCIAL DE BARAO DE COCAIS,Avenida 1 rua 4,262,Cidade Nova,35970000,,(31) 38377610,(31) 999819929,polobcufop@yahoo.com.br,uab.barao@cead.ufop.br,
40,Barbalha,CE,72.9853021,392.8972319,BARBALHA - BURITI,POLO UAB - BARBALHA,Av. josé bernardino cavalcante de barbalha,0,Buriti,63180000,Km 4,(88) 35320801,() ,cavalache@centec.org,hilleitecruz@gmail.com,
327,Barcarena,PA,-1.527938,-48.687877,BARCARENA - SAO FRANCISCO,POLO UAB - BARCARENA,Rodovia PA 481,0,Bairro São Francisco,68447000,,(91) 983288831,() ,polouabbarcarena1@gmail.com,,
330,Barra do Bugres,MT,-15.068575,-57.180791,BARRA DO BUGRES - CENTRO,POLO DE APOIO PRESENCIAL DE BARRA DO BUGRES,Av. Deputado Hitler Sansão,820,,78390000,,(65) 33612483,(65) 33612132,uabpolobbug@gmail.com,v.oenning@hotmail.com,
331,Barra do Corda,MA,-5.504659,-45.238583,BARRA DO CORDA - ALTAMIRA,CENTRO DE ESTUDOS SUPERIORES DE BARRA DO CORDA,Rua Nelson Paturi,0,Altamira,65950000,,(99) 36431294,() ,ces-bac@hotmail.com,,
862,Barra do Piraí,RJ,-22.462328,-43.816068,BARRA DO PIRAI - QUIMICA,POLO UAB - BARRA DO PIRAI,Rua Dr. Luiz Alves Pereira,70,Quimica,27130140,2º Andar,(24) 24431956,() ,polo-barradopirai@cederj.rj.gov.br,EVITEIXEIRA@GMAIL.COM,
979,Barras,PI,-4.24962,-42.295218,BARRAS - CENTRO,POLO DE BARRAS,Rua Fenelon Castelo Branco,0,Centro,64100-000,,(86) 32163393,() ,supes.seduc@gmail.com,,
275,Barretos,SP,-20.534281,-48.572858,BARRETOS - DERBYCLUB,POLO UAB - BARRETOS,Rua 21 de Abril,240,Derby Clube,14787240,Derby Clube,(17) 33228184,() ,uabpolobarretos@yahoo.com.br,,www.barretos.sp.gov.br
335,Barroso,MG,,,BARROSO - SANTA MARIA,POLO UAB  BARROSO,Avenida Carlos Alberto Pereira de Moura da Silva,0,Santa Maria,36212000,Parque de Exposições,(32) 33511524,() ,polobarroso@hotmail.com,,
1068,Barueri,SP,,,BARUERI - ALPHAVILLE EMPRESARIAL,FIEB – FUNDACAO INSTITUTO DE EDUCACAO DE BARUERI,Av. Andromeda,500,Centro,6473000,FIEB- Fundação Instituto de Educação de Barueri,(11) 20787811,() ,superintendente@fieb.edu.br,mar-miguel@uol.com.br,
336,Bataguassu,MS,-21.78550,-52.56542,BATAGUASSU - JARDIM SANTA MARIA,POLO DE APOIO PRESENCIAL DE BATAGUASSU,av. Presidente Prudente,10,Jardim Santa Maria,79780000,,(67) 35413793,() ,sorayalemes@gmail.com,,
337,Beberibe,CE,-4.184165,-38.127613,BEBERIBE - CENTRO,POLO UAB - BEBERIBE,Rua José Bessa,299,Centro,62840-000,-,(85) 33382035,(85) 33382092,cvt.uabbeberibe@yahoo.com.br,virginia_tavares@yahoo.com.br,
339,Bela Vista,MS,-22.106957,-565.30677,BELA VISTA - CENTRO,POLO UAB III José Garibaldi da Rosa Neto,Rua Afonso Pena,0,Costa e Silva,79260000,Anexo Escola Estadual Dr Joaquim Murtinho,(67) 34393959,() ,belavistapolo@gmail.com,,
340,Bela Vista do Paraíso,PR,-22.997723,-51.189678,BELA VISTA DO PARAISO - CENTRO,POLO PRESENCIAL FREDERICO OSAKU LEITE,R. Dra. Marta da Silva Gomes,732,Centro,86130000,Proximo a prefeitura,(43) 32423749,(43) 32423103,polofredericoosakuleite@gmail.com,s.siq@hotmail.com,
863,Belford Roxo,RJ,-22.709576,-43.341202,BELFORD ROXO - PARQUE COLONIAL (JARDIM DO IPE- LOTE XV),POLO UAB - BELFORD ROXO,RUA ISITUBA,0,PARQUE COLONIAL (JARDIM DO IPÊ - LOTE XV),26180-100,,(21) 31356132,() ,polocederjbr@hotmail.com,,
88,Bicas,MG,-21.73237,-43.10454,BICAS - CENTRO,POLO REGIONAL UNIVERSITARIO DE BICAS - UAB,RUA CÔNEGO PIO,,CENTRO,36600000,,(32) 32713249,() ,polouab.bicas@gmail.com,polouab.bicas@gmail.com.,
345,Bituruna,PR,-26.16435,-51.555405,BITURUNA - CENTRO,BITURUNA,Rua Maria Rosa Ramos Nunes,35,Centro,84640000,,() ,() ,uab@bituruna.pr.gov.br,,
346,Blumenau,SC,-26.927441,-49.062109,BLUMENAU - CENTRO,POLO UAB - BLUMENAU,Alameda Rio Branco,574,Jardim Blumenau,89010300,,(47) 32220400,() ,uab_blumenau@sed.sc.gov.br,gereiblumenaugab@sed.sc.gov.br,www.uabblumenau.blogspot.com
89,Boa Esperança,MG,-21.1055362,-45.5592194,BOA ESPERANCA - OZANAN,POLO UAB - BOA ESPERANCA,Rua Tonico Rodrigues,480,Ozanan,37170-000,Unidade CAIC,(35) 38518073,(35) 38510300,polouab@boaesperanca.mg.gov.br,,www.boaesperanca.mg.gov.br
217,Boa Vista,RR,3.18861,-60.61212,BOA VISTA - PRICUMA,POLO UAB - BOA VISTA,ALAMEDA DOS BAMBUS,525,PRICUMÃ,69309395,UNIVERSIDADE VIRTUAL DE RORAIMA,(95) 21219609,() ,polo_boavista@univirr.rr.gov.br,uabbv@hotmail.com,www.univirr.rr.gov.br
1114,Bocaiúva,MG,,,BOCAIUVA - ALTEROSA,CAMPI UNIMONTES BOCAIUVA,Rua Dona Florinda Pires,83 A,Centro,39390-000,Ao Lado da Camara Municipal de Vereadores,(38) 32512136,() ,campus.bocaiuva@unimontes.br,,
918,Bom Despacho,MG,-19.743247,-45.239442,BOM DESPACHO - ANA ROSA,POLO DO CENTRO OESTE DA UAB,"Avenida Ana Rosa, 1555",,Ana Rosa,3560000,,(37) 35213680,(37) 35213679,educacao@bomdespacho.mg.gov.br,semebomdespacho@hotmail.com,
347,Bom Jesus,PI,,,BOM JESUS - JOSUE PARENTE,UESPI-CAMPUS DOM JOSE VASQUEZ DIAZ,Praça Alcebiades de Moraes,0,Josué Parente,64900000,,(89) 35621295,() ,mlnuneznovo@hotmail.com,coordead.bj@uespi.br,
19,Bom Jesus da Lapa,BA,-13.251566,-43.413179,BOM JESUS DA LAPA - AMARALINA,POLO DE APOIO PRESENCIAL DE BOM JESUS DA LAPA,Rua Dr. Josefino Moreira Castro,0,Amaralina,47.600000,,(77) 34810923,(77) 999996933,uab.lapa@gmail.com,elianelapa@gmail.com,
349,Bom Jesus das Selvas,MA,,,BOM JESUS DAS SELVAS - CENTRO,PROFESSORA MARIA ALDECY DE OLIVEIRA,Rua Barreirinhas,0,Centro,65395000,,(98) 36521271,(98) 36521416,uab_bomjesus@yahoo.com.br,bjselvas@yahoo.com.br,
181,Bom Jesus do Itabapoana,RJ,-21.135525,-41.671814,BOM JESUS DO ITABAPOANA - CENTRO,POLO UAB - BOM JESUS DO ITABAPOANA,Av. Governador Roberto Silveira,578,Centro,28360000,Colégio Estadual Padre Mello,(22) 38318067,() ,polo-bomjesusdoitabapoana@cecierj.edu.br,,www.cederj.edu.br/fundaçãocecierj/
57,Bom Jesus do Norte,ES,-21.13107,-41.67636,BOM JESUS DO NORTE - CENTRO,POLO UAB DE APOIO PRESENCIAL DE BOM JESUS DO NORTE-ES,Av. Francisco Lacerda de Aguiar,0,Centro,29460-000,,(28) 35622544,() 35621166,UAB.BJN@GMAIL.COM,,
218,Bonfim,RR,3.357865,-598.34292,BONFIM - CENTRO,UNIVIRR - BONFIM - UAB,Avenida Rodrigo Pires de Figueiredo,41,Centro,69380000,,(95) 981151094,(95) 981145057,danielzinhomc@gmail.com,,
767,Braço do Norte,SC,-28.263823,-49.177021,BRACO DO NORTE - VILA NOVA,BRACO DO NORTE,Rua João Bloemer Filho,233,Vila Nova,88750000,Anexo a Escola Municipal Pedro Marcolino Guesser,(48) 36587902,(48) 36584268,polouab17bracodonorte@gmail.com,marisrafael@gmail.com,
353,Bragança Paulista,SP,-22.934546,-46.538191,BRAGANCA PAULISTA - UBERABA,POLO UAB BRAGANCA PAULISTA,Rua Alexadre Berbari,101,Jardim São Lourenço,12926-676,Escola Municipal Jandira da Costa Valente,(11) 40351600,(11) 40323187,uabpolobraganca@hotmail.com,,
2,Brasiléia,AC,-11.015237,-68.749705,BRASILEIA - CENTRO,POLO UAB - BRASILEIA,Av. Prefeito Rolando Moreira,230,centro,69932000,,(68) 35463539,() ,polouab.brasileia@ac.gov.br,ceciliaoliveister@gmail.com,
1139,Brasília de Minas,MG,,,BRASILIA DE MINAS - CENTRO,PÓLO EAD/UAB – BRASILIA DE MINAS,Av. Rui Barbosa,265,Centro,39330-000,Próximo ao Forum,(38) 32312304,() ,brasiliademinas@ead.unimontes.br,poloead.uab.bm@gmail.com,
266,Brejo Grande,SE,10.4246279,364.63921,BREJO GRANDE - CENTRO,POLO FOZ DO SAO FRANCISCO-  B. GRANDE/ SE,Rua Dr. Eneas Ferreira,510,Centro,49995000,,(79) 33661424,() ,polouabbrejogrande@gmail.com,polofozdosaofrancisco@gmail.com,
354,Brejo Santo,CE,-74.889616,-389.851239,BREJO SANTO - CENTRO,POLO DE BREJO SANTO-CEARA,Rua Manoel Antonio Cabral,0,Centro,63200000,,(88) 35311684,() ,cvt_brejosanto@centec.org.br,horleylucena.bs@bol.com.br,
358,Breves,PA,-1.6828809,-50.4798493,BREVES - AEROPORTO,CENTRO DE DESENV. E ED.PROFISSIONAL DR.JOAO MESSIAS DOS SANTOS-CEDEP,Av. Rio Branco,1752,Aeroporto,68800-000,,(91) 93538165,(91) 37832081,polo.breves.pa.uab@hotmail.com,,
359,Brumado,BA,-14.199014,-41.667474,BRUMADO - TANQUE,POLO DA UAB EM BRUMADO,Rua Antonio Carlos Magalhaes,0,do Tanque,46100000,,(77) 34412404,(77) 34412195,uab_brumado@brumado.ba.gov.br,,
121,Bujaru,PA,-1.521377,-48.04170,BUJARU - BAIRRO NOVO,POLO MUNICIPAL DE APOIO PRESENCIAL IZABEL BRAGA DE SOUSA - BUJARU - UAB,Rua Tancredo Neves,0,Bairro Novo,68670-000,,(91) 37461147,(91) 37461191,uabbujaru@hotmail.com,,
156,Buriti dos Lopes,PI,-3.181224,-41.865507,BURITI DOS LOPES - COHAB,POLO DE APOIO PRESENCIAL JOSE FRANCA DA ROCHA - BURITI DOS LOPES - UAB,Rua Professora Maria da Glória,0,COHAB,64230000,,(86) 33631503,() 33631710,polouabburitidoslopes@gmail.com,fgildaziosilva@hotmail.com,
362,Buritis,RO,,,BURITIS - SETOR 1,CENTRO TECNOLOGICO DE FORMACAO INICIAL E CONTINUADA DO MAGISTERIO PUBLICO MUNICIPAL DE BURITIS,Av Ayrton Senna,971,Centro,76880000,Centro Tecnológico de Formação,(69) 32383998,() ,polouabburitis@gmail.com,demicio@ig.com.br,
90,Buritis,MG,-15.627278,-46.435047,BURITIS - VEREDAS,POLO UNIVERSITARIO DE BURITIS,Rua Ouro preto,211,Bairro Veredas,38660-000,,(38) 36623469,(38) 36623041,poloburitis@gmail.com,editesbrito@hotmail.com,
768,Buritizeiro,MG,-17.373924,-44.965494,BURITIZEIRO - JARDIM DOS BURITIS,BURITIZEIRO,Rua 20,101,Jardim dos Buritis,39280-000,,(38) 37422198,(38) 37422198,uabburitizeiro@yahoo.com.br,giselleef@gmail.com,
363,Cabaceiras,PB,-7.49152,-36.2887381,CABACEIRAS - CENTRO,UAB TERESINHA JESUS FARIAS AIRES-POLO CABACEIRAS,Avenida 4 de junho,379,Centro,58480000,,(83) 33561165,() ,uab.cab@gmail.com,pmcab.seduc@bol.com.br,
894,Cabrobó,PE,,,CABROBO - CENTRO,ESCOLA SENADOR PAULO GUERRA,Av. Brigida de Alencar,0,Centro,56180000,Escola Estadual Senador Paulo Gueraa,(87) 38751171,() ,espg.cabrobo@gmail.com,,
877,Caçador,SC,-26.777496,-51.015514,CACADOR - CENTRO,CACADOR,Rua Nereu Ramos,273,Centro,89500000,Escola Estadual Paulo Schieffler,(49) 35630577,(49) 35676531,registro10@sed.sc.gov.br,uabpolocacador@hotmail.com,
364,Cacequi,RS,-29.877872,-54.827923,CACEQUI - CENTRO,UAB - POLO DE CACEQUI,Rua Senador Salgado Filho,0,Centro,97450000,,(55) 32541089,(55) 32543289,uabcacequi@gmail.com,,
965,Cáceres,MT,-16.084006,-57.684661,CACERES - MARACANAZINHO,POLO DE CACERES,Rua  das Saracuras,0,Maracanazinho,78200000,,(65) 32234542,(65) 32237537,coord.caceres.dead@unemat.br,leilatuim14@gmail.com,
365,Cachoeira do Arari,PA,,,CACHOEIRA DO ARARI - PETROPOLIS,CACHOEIRA DO ARARI,Avenida Coronel Bento Miranda,500,Petrópolis,68840000,,(91) 37581550,() ,polouabdalcidiojurandir@hotmail.com,semed_ca@yahoo.com.br,
233,Cachoeira do Sul,RS,-30.037385,-52.898366,CACHOEIRA DO SUL - CENTRO,"POLO DE APOIO PRESENCIAL DA UNIVERSIDADE ABERTA DO BRASIL E CASA DO PROFESSOR ""VALE DO JACUI"" DE CACHOEIRA DO SUL",RUA  JULIO DE CASTILHO,342,CENTRO,96501000,,(51) 37246007,(51) 37240867,uabcachoeira@gmail.com,uabcachoeira@hotmail.com,
366,Cachoeiro de Itapemirim,ES,-20.76807,-41.19056,CACHOEIRO DE ITAPEMIRIM - DR. LUIZ TINOCO DA FONSECA - MORRO GRANDE,POLO UAB - CACHOEIRO DE ITAPEMIRIM,Rodovia Engenheiro Fabiano Vivácqua,0,Dr. Luiz Tinoco da Fonseca - Morro Grande,29313230,Cidade Universitária,(28) 35213938,() ,jcellin@yahoo.com.br,,
1355,Cajazeiras do Piauí,PI,06.4558,422330,CAJAZEIRAS DO PIAUÍ - CENTRO,Polo UAB de Cajazeiras do Piauí,Rua José Paulino,0,Centro,64514000,,(89) 88017424,(89) 88177838,polo.uab.cajazeiras.pi@gmail.com,sec.educacaocajazeiras-pi@hotmail.com,
1071,Cajueiro,AL,,,CAJUEIRO - CENTRO,DR. JOAO CABRAL TOLEDO,Conjunto Antônio Palmery Soriano Melo I,0,Centro,57770-000,Extensão da Escola Municipal João Teixeira,(82) 32841673,(82) 999893121,semedcajueiroal@ig.com.br,isamariateixeiraguimaraes@gmail.com,
20,Camaçari,BA,-12.698214,-38.321376,CAMACARI - BAIRRO DO NATAL,POLO UAB - CAMACARI,Cidade do Saber,0,Do Natal,4280000,Rua do Telegrafo,(71) 36449839,(71) 36449839,polocamacari@gmail.com,danimil82@yahoo.com.br,
371,Camapuã,MS,-19.5366417,-54.037688,CAMAPUA - VILA DIAMANTINA,CENTRO DE APOIO PRESENCIAL DE CAMAPUA,Rua Ferreira da Cunha,200,Vila Diamantina,79420-000,,() 32863333,(67) ,emconegundes@gmail.com,polouab@camapua.ms.gov.br,
234,Camargo,RS,,,CAMARGO - CENTRO,POLO DE APOIO PRESENCIAL - UAB CAMARGO/RS,Rua Padre Stripolli,459,Centro,99165000,,(54) 33571153,() ,polouabcamargo@hotmail.com,,www.uabcamargo.com.br
91,Cambuí,MG,-22.6049119,-460.574754168,CAMBUI - CENTRO,POLO UAB - CAMBUI,Rua Antonio Alexandre de Moraes,39,Centro,37600000,,(35) 34316693,(35) 987075089,polouab@prefeituradecambui.mg.gov.br,elizendadardes@hotmail.com,
373,Cametá,PA,-2.243317,-49.496912,CAMETA - CENTRAL,UAB - POLO CAMETA,Av Gentil Bittencourt,1582,Centro,68400-000,,(91) 37812122,() ,uabcameta@gmail.com,,
41,Camocim,CE,-2.897985,-40.844631,CAMOCIM - CENTRO,POLO UAB - CAMOCIM,Rua Antônio Zeferino Veras,0,São Francisco,72400000,Camocim - CE,(88) 36211567,(88) 999487606,uabpolocamocim@hotmail.com,clivialenny@gmail.com,
137,Campina Grande,PB,-7.222468,-35.8905,CAMPINA GRANDE - CENTRO,POLO MUNICIPAL DE APOIO PRESENCIAL - CAMPINA GRANDE - UAB,Rua Santa Clara,0,Centro,58400-170,Largo do Açude Novo,(83) 33411236,(83) 33410621,polomunicipaldecampinagrande@gmail.com,,portal.pmcg.pb.gov.br/uab
375,Campinas,SP,-22.89703,-47.04441,CAMPINAS - JARDIM PAINEIRAS,CAMPINAS,Rua João Alves dos Santos,860,Jardim Paineiras,13092331,,(19) 32591496,(19) 32591495,uab@campinas.sp.gov.br,uabcampinas@gmail.com,https://www.facebook.com/uabcampinas/
805,Campo Alegre de Lourdes,BA,-9.50097,-42.98275,CAMPO ALEGRE DE LOURDES - CENTRO,POLO UAB CAMPO ALEGRE DE LOURDES,Rua Castro Alves,,Centro,47220000,,(74) 35332149,() ,deusvaldoalmeida@hotmail.com,uab.campoalegre@educ.ba.gov.br,
376,Campo Belo,MG,-20.905664,-45.267771,CAMPO BELO - CIDADE MONTESA,POLO UAB DE CAMPO BELO,Av. Indianápolis,325,Cidade Montesa,32270000,Escola Municipal Lucilia Gibram Cambraia,(35) 38327344,() ,uabcampobelo@gmail.com,anamaripimenta@gmail.com,
1063,Campo Formoso,BA,,,CAMPO FORMOSO - CENTRO,CENTRO DE FORMACAO DOS PROFISSIONAIS DA EDUCACAO,Rua Arsenio Alves,0,Centro,44790000,,(74) 36451229,() ,pmcf.educacao@gmail.com,,
1356,Campo Largo,PR,-25.460133,-495.28961,CAMPO LARGO - CENTRO,Polo UAB Campo Largo,Oswaldo Cruz,1260,Centro,83601150,,(41) 32915068,(41) 32921571,uab@campolargo.pr.gov.br,claudianekupka@gmail.com,
378,Campo Maior,PI,-4.837261,-42.185253,CAMPO MAIOR - SAO LUIS,UESPI-CAMPUS HEROIS DO JENIPAPO,Avenida Santo Antonio,1736,São Luis,6428000,,(86) 32521848,(86) 32525458,polouabcampomaior@gmail.com,augustofilho67@gmail.com,
1009,Campo Verde,MT,,,CAMPO VERDE - CENTRO,POLO DE CAMPO VERDE,Avenida Ayrton Senna,1201,Jardim Campo Verde I,78840000,Centro Educacional Paulo Freire,(66) 34194005,(66) 34193801,educacao@campoverde.mt.gov.br,neitv@hotmail.com,
92,Campos Gerais,MG,-21.240596,-45.7598113,CAMPOS GERAIS - CENTRO,POLO UAB - CAMPOS GERAIS,Rua Jorge de Paula Meinberg,689,Centro,37160000,,(35) 38532870,(35) 38532343,polouab@camposgerais.mg.gov.br,mafdec@gmail.com,
876,Campos Novos,SC,-27.403430,-51.226703,CAMPOS NOVOS - CENTRO,CAMPOS NOVOS,Rua Coronel Pedro Carlos,803,Centro,89620-000,,(49) 35410588,(49) 35417122,uabcamposnovos@sed.sc.gov.br,sens08@sed.sc.gov.br,
381,Campos Sales,CE,-7.069926,-40.36892,CAMPOS SALES - ALTO ALEGRE,POLO DE APOIO PRESENCIAL DE CAMPOS SALES,Rua Emiliano Fortaleza,0,Alto Alegre,63150000,CVT-Centro Vocacional Tecnológico,(88) 35331874,(88) 35332709,uab_polocs@yahoo.com.br,alencarmara@yahoo.com.br,
122,Canaã dos Carajás,PA,,,CANAA DOS CARAJAS - CENTRO,POLO UAB - CANAA DOS CARAJAS,Rua Muiracatiara,25,Novo Horizonte,68537000,Antigo Centro Profissionalizante 2,() ,() ,raimundahc@hotmail.com,castrohrm@gmail.com,
1199,Canarana,MT,-13.555827,-522.652806,CANARANA - CENTRO,Polo UAB de Canarana,Avenida Rio Grande do Sul,0,Centro,78640000,,(66) 34781600,(66) 96582282,uabcanarana@outlook.com,,
1085,Cândido de Abreu,PR,,,CANDIDO DE ABREU - CENTRO,POLO DA UAB DE CANDIDO DE ABREU,Av. Paraná,13,centro,84470000,ao Lado da Prefeitura Municipal,(43) 34761346,() ,polouab@candidodeabreu.pr.gov.br,,
1078,Canelinha,SC,-27.25797,-48.773568,CANELINHA - AREIAO,POLO UAB DE CANELINHA,Rua Prefeito Silvestre Nunes Júnior,901,Areão,88230000,Anexo a Escola EEB Herminia Alves Reis,(48) 32641171,(48) 991546915,contatouab.polocanelinha@hotmail.com,coordenador.antonio@terra.com.br,
383,Canoinhas,SC,-26.168342,-50.394503,CANOINHAS - CENTRO,POLO DE APOIO PRESENCIAL EAD/UAB DE  CANOINHAS,Rua Bernardo Olsen,400,Centro,89460000,Anexo a Escola Estadual de Educação Básica Santa Cruz,(47) 36226310,(47) 96729615,polodecanoinhas@gmail.com,soniasacheti@gmail.com,
219,Cantá,RR,2.608494,-60.597631,CANTA - CENTRO,POLO UAB - CANTA,Rua Francisco Cunha,0,Centro,69390-000,,(95) 35531252,() 35531256,damiaomaximino@gmail.com,damiao@univirr.com,
182,Cantagalo,RJ,-21.981782,-42.365339,CANTAGALO - CENTRO,POLO UAB - CANTAGALO,Rua Chapot Prevost,157,Centro,28500000,,(22) 25554786,(22) 25551442,polo-cantagalo@cederj.rj.gov.br,,
157,Canto do Buriti,PI,-8.113875,-42.949859,CANTO DO BURITI - AEROPORTO,POLO MANOEL MARQUES DE ARAUJO - CANTO DO BURITI -UAB,Rua Rio Grande do Norte,702,Aeroporto,64890000,,(89) 35312427,(89) 99134801,cantodoburitiuab@gmail.com,,
1075,Capim Grosso,BA,,,CAPIM GROSSO - JARDIM ARAUJO,POLO DA UNIVERSIDADE ABERTA DO BRASIL EM CAPIM GROSSO,Rua Jacobina,0,Jardim Araújo,44695000,,(74) 991032460,(74) 36511844,polouabcapimgrosso.2014@gmail.com,neidesun1@hotmail.com,
220,Caracaraí,RR,,,CARACARAI - CENTRO,POLO UAB - CARACARAI,Rua Japurá,0,Centro,69360000,,(95) 35321217,() ,gst.gledson@hotmail.com,gledsonsaboia@yahoo.com.br,
1198,Carandaí,MG,-20.952314,-438.02493,CARANDAÍ - ROSA RIO,Polo UAB de Carandaí,Rua Coletos Cloves Teixeira de Carvalho,326,Rosa Rio,36280000,,(32) 33612014,(32) 33611177,educacao@carandai.mg.gov.br,,
923,Caratinga,MG,-19.779882,-42.139529,CARATINGA - DARIO GROSSI,POLO UAB DE APOIO PRESENCIAL DE CARATINGA,Rua Maria Alice de Paula,300,Dario Grossi,35300430,-,(33) 33216336,(33) 98711300,polo@educ.caratinga.mg.gov.br,polocaratinga@gmail.com,
389,Caraúbas,RN,-5.786722,-37.557500,CARAUBAS - DR. SEBASTIAO MALTEZ,POLO UAB - SERTAO DAS CARAUBEIRAS,Rua Alfredo Alves de Azevedo,212,Sebastião Maltés,59780-000,,(84) 33372529,(84) 33373327,polouabcaraubas@gmail.com,marcos.rfg@click21.com.br,
21,Carinhanha,BA,-14.307508,-43.768506,CARINHANHA - CENTRO,POLO UAB - POLO EDUCACIONAL DONA CARMEN/CARINHANHA,Praça do Educandario,1,Centro,46445000,Proximo a praça Beira Rio,(77) 34852803,() ,uabpolocarinhanha@yahoo.com.br,,BA
390,Carira,SE,,,CARIRA - VILA NOVA,POLO DE APOIO PRESENCIAL DE CARIRA,Rua João Paulo da Conceição,0,Vila Nova,49550000,,(79) ,() ,polocarira@gmail.com,,
391,Carlos Chagas,MG,-17.702602,-40.762502,CARLOS CHAGAS - CENTRO,POLO CARLOS CHAGAS,Travessa Braga,381,Centro,39864-000,,(33) 36243043,() ,francoedione@hotmail.com,,
1015,Carmo do Rio Claro,MG,,,CARMO DO RIO CLARO - CENTRO,POLO UAB EM CARMO DO RIO CLARO,Praça Maria Gulart,37,Centro,37150000,Prédio da antiga Prefeitura Municipal,() ,() ,carmodorioclaro@uaitec.mg.gov.br,,
392,Carneirinho,MG,-19.700021,-50.686938,CARNEIRINHO - CENTRO,CARNEIRINHO UAB,Av. Jose Ambrosio de Queiroz,850,Centro,38290000,,(34) 34540241,(34) 34540244,polocarneirinhouab@gmail.com,emvlacar@yahoo.com.br,
393,Carolina,MA,,,CAROLINA - SETOR UNIVERSITARIO,POLO DE APOIO PRESENCIAL-UAB2-CAROLINA,Av. Frederico Marins de Azevedo,616,Setor Universitario,65980000,,(99) 35313734,(99) 35312481,aglairnead@yahoo.com.br,aglairsemec@yahoo.com.br,
878,Carpina,PE,-7.8432299,-35.2537734,CARPINA - SAO JOSE,ESCOLA JOSE DE LIMA JUNIOR,Av. Hagamenon Magalhães,0,São José,55815060,,(81) 36228944,() ,coordenadorpolocarpina@gmail.com,coordenadorpolocarpina@gmail.com,
1162,Carutapera,MA,,,CARUTAPERA - APARECIDA,Polo UAB de Carutapera,Av. Padre Mario Rocca,0,APARECIDA,65295000,,(98) 33941633,(98) 984468099,uabpolocuru@gmail.com,gloria_sousa1@hotmail.com,
58,Castelo,ES,,,CASTELO - VILA ISABEL,POLO UAB - CASTELO,Praça Mario Lima,43,Vila Isabel,29360000,Anexo a Escola Municipal Madalena Piza,(28) 33106909,() ,polouabcastelo@gmail.com,,
158,Castelo do Piauí,PI,,,CASTELO DO PIAUI - CENTRO,POLO DE APOIO PRESENCIAL TERRITORIO DAS CARNAUBAIS - CASTELO DO PIAUI - UAB,Rua Joaquim Távora,537,Centro,64340000,,(86) 32471346,() ,faomuabcastelo@gmail.com,,
924,Cataguases,MG,-21.413091,-42.681317,CATAGUASES - SANTA CLARA,POLO UAB DE APOIO PRESENCIAL DE CATAGUASES,Av. Nicolau Siervi,161,Vila Minalda,36772430,,(32) 34211955,(32) 34222097,uabcataguases@gmail.com.br,,
77,Catalão,GO,-18.15595,-47.950951,CATALAO - JARDIM PRIMAVERA,POLO UAB - CATALAO,Rua das Violetas,100,Jardim Primavera,75712735,,(64) 34422572,(64) 34113105,polocatalaouab@gmail.com,,
42,Caucaia,CE,-3.774092,-386.26042,CAUCAIA - ARATURI,POLO UAB CAUCAIA ARATURI (JUREMA),Rua Santa Marta,35,Araturi,61695000,Loteamento Amazonas,(85) 988582145,(85) 33428103,uabjurema@sct.caucaia.ce.gov.br,marciar8@gmail.com,uabjurema.wix.com/eadcaucaia
44,Caucaia,CE,-3.732098,-38.649736,CAUCAIA - ITAMBE I,POLO UAB CAUCAIA 3 - ESCOLA FLAVIO PORTELA MARCILIO(SEDE),R. #5,23,Itambé,61600000,Conjunto Vicente Arruda,(85) 33421161,(85) 985084693,caucaia27@hotmail.com,polosedecaucaia@gmail.com,
43,Caucaia,CE,-3.729668,-38.664003,CAUCAIA - NOVO PABUSSU,MARIA DOLORES MENEZES DE ALMEIDA - POLO UAB DE CAUCAIA 1( PROVISORIO),Rua da Consolação,465,Novo Pabussú,61600310,,(85) 33421179,() ,polouabcaucaia.mariadolores@gmail.com,fsmoreira2009@gmail.com,
1010,Cavalcante,GO,-13.79606,-47.4616417,CAVALCANTE - CENTRO,POLO UAB EM CAVALCANTE,Rua Guilhermino Magalhães - Quadra 27,228,Centro,73790-000,Casa do Aprendiz,(62) 34941393,() ,polouabcavalcantego@gmail.com,,
400,Caxias,MA,-4.864116,-43.366369,CAXIAS - CENTRO,POLO UAB CAXIAS,Rua São Pedro,0,Centro,65608-160,,(99) 34210065,(99) 35216248,delcysilva@hotmail.com,,
405,Cerro Azul,PR,,,CERRO AZUL - CENTRO,CENTRO COMUNITARIO BERNARDO VON MULLER,Rua Deputado Aníal Cury,0,Centro,83570000,,(41) 36621641,() ,jincaiblum@yahoo.com.br,municip@terra.com.br,
235,Cerro Largo,RS,-28.150262,-547.519938,CERRO LARGO - CENTRO,POLO UAB - CERRO LARGO,Rua Major Antonio Cardoso,250,Centro,97900000,,(55) 33593133,(55) 33592005,polouab1cerrolargo@gmail.com,,
852,Céu Azul,PR,-24.8258982,-49.2565215,CEU AZUL - CENTRO,POLO UAB DE CEU  AZUL,Rua Professor Daniel Muraro,958,Centro,85840000,,(45) 32662502,() ,poloceuazul@gmail.com,educacao@netceu.com.br,
78,Cezarina,GO,-16.971879,-49.775894,CEZARINA - CENTRO,CENTRO DE ENSINO SUPERIOR DE CEZARINA -UAB,R. Rui Barbosa,159,Centro,76195-000,Frente  agencia dos correios,(64) 35436015,(64) 81279079,polouabcezarina@gmail.com,ROSIMEYRE.UABCEZARINA-GO@BOL.COM.BR,
407,Chapecó,SC,-27.091525,-52.634232,CHAPECO - SAO CRISTOVAO,POLO MUNICIPAL DE APOIO PRESENCIAL- UAB - CHAPECO,Rua Osvaldo Cruz,1556-E,São Cristóvão,89803361,-,(49) 33298274,() ,chapecouab@hotmail.com,,www.chapeco.sc.gov.br
212,Chupinguaia,RO,-12.5558026,-60.902808,CHUPINGUAIA - CENTRO,POLO UAB - CHUPINGUAIA,Silvana Gonçalves,1492,Centro,76990000,,(69) 33461107,(69) 33461787,uab.chupinguia@hotmail.com,uab.chuoinguai@gmail.com,
1057,Cianorte,PR,,,CIANORTE - ZONA 06,POLO UAB DE CIANORTE,Henrique Dias,211,Zona 6,87205030,Escola Municipal Lidia Usuy Ohi,(44) 36372887,() ,lidiaohi@cianorte.pr.gov.br,,
170,Cidade Gaúcha,PR,-23.359725,-52.931081,CIDADE GAUCHA - RODOVIA,POLO UAB DE APOIO PRESENCIAL CIDADE GAUCHA - PR,"BR 482, km45",0,Área Rural,87820000,Próximo a Pólicia Rodoviária Estadual,(44) 36758288,(44) 36758538,uab.gaucha@gmail.com,vivmr@hotmail.com,-
13,Coari,AM,-4.05402,-64.15114,COARI - UNIAO,POLO DE APOIO PRESENCIAL DA UAB EM COARI,Rua C,19,União,69460000,,(97) 35612460,(97) 35612873,polouabcoari@yahoo.com.br,klykya_xavier@yahoo.com.br,
412,Codó,MA,-4.4449448,-43.8903635,CODO - SAO BENEDITO,POLO UAB - CODO,Rua Paraíba,474,São Benedito,65400-000,,(99) 36612906,(99) 36611399,polouabcodo@gmail.com,,
414,Coelho Neto,MA,-4.256842,-43.004968,COELHO NETO - CENTRO,POLO UAB COELHO NETO,Av. Marechal Cordeiro de Farias,0,Centro,65620-000,Escola Municipal José Sarney,(98) 34731967,() ,polouab_cn@hotmail.com,,
415,Colatina,ES,-19.550583,-406.29372,COLATINA - ESPLANADA,POLO-UAB/COLATINA,Rua Sergio Bernardino,0,Santa Terezinha,29702140,,(27) 31777070,() ,colatina.uab@gmail.com,,
784,Colíder,MT,-10.796309,-55.459701,COLIDER - SANTA CLARA,CENTRO DE APOIO DE COLIDER PRO-LICENCIATURA I,Av. Dauri Riva,962,Santa Clara,78500000,Setor Norte,(66) 35411315,() ,educacao@colider.mt.gov.br,smec_2@hotmail.com,
417,Colinas,MA,06.0133,441457,COLINAS - CENTRO,POLO UAB - CENTRO DE ESTUDOS SUPERIORES DE COLINAS,Av. Dr. Osano Brandao,511,Centro,65690000,,(99) 35521260,(99) 35521626,petalaric@gmail.com,,
419,Colombo,PR,-25.360872,-49.18444,COLOMBO - JD. NOSSA SENHORA DE FATIMA,Polo Profº Altair da Silva Leme,Rua Dorval Ceccon,664,Jd Nossa Senhora de Fátima,83405030,Colombo Park Shopping - 2o andar,(41) 36755090,() ,uabcolombo@gmail.com,srsbrunoro@gmail.com,
1008,Comodoro,MT,,,COMODORO - NOVA VACARIA,POLO COMODORO,Rua José Laurindo Camilo,353-S,Nova Vacaria,78310000,,() 32831472,(65) ,semeccdo@bol.com.br,,
59,Conceição da Barra,ES,-18.589587,-39.733459,CONCEICAO DA BARRA - CENTRO,POLO MUNICIPAL DE APOIO PRESENCIAL - CENTRO MUNICIPAL DE EDUCACAO ABERTA E A DISTANCIA DE CONCEICAO DA BARRA - CEME@D - UAB,Rua Vidilino Matos de Lima,0,Centro,29000-960,Prédio da Cozinha Industrial,(27) 998781445,(27) 997489266,CEMEAD.CB@GMAIL.COM,MARLENE.MARLENSOFT@GMAIL.COM,
123,Conceição do Araguaia,PA,-8.261361,-49.26213,CONCEICAO DO ARAGUAIA - CENTRO,POLO PROF.  EDUARDO LIMA LUZ - CONCEICAO DO ARAGUAIA - UAB,Travessa Irma Maria Otávia,0,Centro,68540-000,,(94) 991947221,(94) 991947221,uabconceicao@gmail.com,jeronimocdds@gmail.com,
421,Conceição do Coité,BA,-11.56874,-39.288397,CONCEICAO DO COITE - CENTRO,POLO UAB DE CONCEICAO DO COITE - BA.,Rua Maximino Madureira,0,Centro,48730000,Escola Estadual Olgarina Pitangueira Pinheiro,(75) 32622052,(75) 991627166,polouabcoite@gmail.com,vero.coite@hotmail.com,http://uabconceicaodocoite.blogspot.com/
422,Conceição do Mato Dentro,MG,-18.90010,-43.50229,CONCEICAO DO MATO DENTRO - CENTRO,POLO UAB - CONCEICAO DO MATO DENTRO,Rua São Francisco,501,Bandeirinha,35860000,Localizado no Ginásio São francisco/SENAI,(31) 38682630,() ,poloensino.uabcmd@gmail.com,,
388,Concórdia,SC,-27.234207,-52.023043,CONCORDIA - CENTRO,POLO UAB: SDR - CONCORDIA,Travessa Irmã Leopoldina,136,Centro,80700-000,Fundos,(49) 34423878,() ,uabconcordia@yahoo.com.br,leonitaco@yahoo.com.br,
138,Conde,PB,-7.260478,-34.908025,CONDE - CENTRO,POLO DE APOIO PRESENCIAL DA UAB - CONDE,Rodovia PB - 018,0,Centro,58322000,"Km 3,5",(83) 32981231,() ,uabpolocondepb@gmail.com,,
424,Confins,MG,-19.624707,-43.988245,CONFINS - CENTRO,CENTRO EDUCACIONAL E CULTURA/ESCOLA MUNIC.AFONSO JOSE DA SILVA,Rua Moura Rodrigues,730,Centro,33500000,,(31) 36862116,(31) 36861320,educacao@confins.mg.gov.br,educonfins@hotmail.com,
425,Congonhinhas,PR,-23.5509368,-50.5502271,CONGONHINHAS - CENTRO,UAB- CONGONHINHAS,Av. Dr. David Xavier da Silva,670,Centro,86320000,,(43) 35541363,(43) 35541029,uabpolo@yahoo.com.br,saferap@hotmail.com,
93,Conselheiro Lafaiete,MG,-20.666367,-43.809271,CONSELHEIRO LAFAIETE - SAO DIMAS,POLO UAB - CONSELHEIRO LAFAIETE,Rua Padre Teófilo Reyn,990,São Dimas,3640000,Bairro São Dimas,(31) 37693002,() ,polouab@conselheirolafaiete.mg.gov.br,uab.lafaiete@cead.ufop.br,www.uablafaiete.webnode.com
236,Constantina,RS,,,CONSTANTINA - CENTRO,POLO DE EDUCACAO SUPERIOR DE CONSTANTINA - PESCO - UAB,Av. Amandio Araujo,1125,Centro,99680000,,(54) 33631385,(54) 33631311,polouab.constantina@gmail.com,mirialena@gmail.com,
1165,Contagem,MG,-19.954741,-440.377281,CONTAGEM - INCONFIDENTES,Polo UAB de Contagem,Praça Marília de Dirceu,20,Inconfidentes,32260220,,(31) 33613264,(31) 83983264,uabpolo.contagem@gmail.com,tbiol@gmail.com,
427,Coremas,PB,-7.015289,-37.953765,COREMAS - CENTRO,POLO UAB - COREMAS,Rua Mecânica DNOCS,0,Mecânica DNOCS,58770-000,,(83) 99145132,() ,polouabcoremas@gmail.com,,
94,Corinto,MG,-18.366266,-44.463281,CORINTO - CLARINDO DE PAIVA,CENTRO TECNOLOGICO EDUCACIONAL DE CORINTO - CETEC - CORINTO - UAB,Rua Risoleta Lima,1041,Clarindo de Paiva,39120000,,(38) 37513359,() 37512878,cetec.uab@gmail.com,,
95,Coromandel,MG,-18.482262,-47.19754,COROMANDEL - SAO DOMINGOS,POLO DE APOIO PRESENCIAL UAB COROMANDEL,Rua Sebastião Lopes Pereira,264,São Domingos,38550000,Casa,(34) 38414344,() ,polo.uab.coromandel@hotmail.com,coordenacaouabcoromandel@hotmail.com,
428,Corrente,PI,-10.442424,-45.160954,CORRENTE - CENTRO,VALE DO CORRENTE,Praça Joaquim Nogueira,73,Centro,64980000,,() ,() ,uabvaledocorrente@gmail.com,,
429,Costa Rica,MS,-18.5386506,-53.1304078,COSTA RICA - AREA RURAL,POLO DE APOIO PRESENCIAL PROF  ADENOCRE A. DE MORAIS -COSTA RICA,JOse Calazans da Silva,172,Area Rural,79550000,,(67) 32471424,(67) 32474956,uabpolocostarica@yahoo.com.br,nomedeira@yahoo.com.br,
792,Criciúma,SC,-28.683588,-49.365615,CRICIUMA - COMERCIARIO,POLO UAB DE CRICIUMA,Rua da Republica,67,Comerciário,88802420,,(48) 34781278,(48) 99931415,polouabcriciuma@hotmail.com,julioufsc@hotmail.com,
433,Cristalândia,TO,-10.62568,-49.36863,CRISTALANDIA - CENTRO,POLO DE EAD DE CRISTALANDIA,Avenida Dom Jaime Antônio Schuck,2600,Centro,77490000,Prédio,(63) 33540199,() ,uabcristalandia@seduc.to.gov.br,benzanila@gmail.com,
434,Cristália,MG,-16.722579,-42.86394,CRISTALIA - CENTRO,POLO UAB DE CRISTALIA,Av. Teodomiro Borges,0,Planalto,39598000,,(38) 32321103,(38) 32321113,uabpolocristalia@ig.com.br,albuquerquecelia@ig.com.br,
237,Cruz Alta,RS,-28.64467,-53.605259,CRUZ ALTA - CENTRO,POLO UAB CRUZ ALTA - RS,Rua Pinheiro Machado,911,Centro,98005000,,(55) 33244547,(55) 33211359,uabpolocruzalta@gmail.com,,
171,Cruzeiro do Oeste,PR,-23.788117,-53.067086,CRUZEIRO DO OESTE - CENTRO,POLO REGIONAL DE APOIO PRESENCIAL DA UAB - CRUZEIRO DO OESTE,AVENIDA PALMAS - ESQUINA COM A RUA FAXINAL,220,CENTRO,87400-000,,(44) 36762093,() ,florinda@cruzeirodooeste.pr.gov.br,florinda@cruzeirodooeste.pr.gov.br,WWW.CRUZEIRODOOESTE.PR.GOV.BR
3,Cruzeiro do Sul,AC,-8.01594,-72.92977,CRUZEIRO DO SUL - CENTRO,CENTRO ESTADUAL DE EDUCACAO  PERMANENTE-CEDUP/UAB,RUA RUI BARBOSA,515,CENTRO,69980000,,(68) 33227986,(68) 999616863,plocruzeirodosul@gmail.com,msulamita@yahoo.com.br,
437,Cubatão,SP,-23.8602,-46.41622,CUBATAO - VILA COUTO,POLO UAB CUBATAO,Rua Fernando Costa,1096,Vila Couto,11510310,Antiga Fábrica da Comunidade,(13) 33723436,(13) 981232564,uabpolocubatao@gmail.com,cp.cubatao.uab@gmail.com,www.uabcubatao.com.br
438,Cuiabá,MT,-15.41924,-55.89023,CUIABA - CENTRO-SUL,UAB Polo Cuiabá,Rua Comandante Costa,1927,Centro-Sul,78025200,,(65) 36243631,(65) 36378426,uab.polocuiaba@gmail.com,elizabete.rosseto@seduc.mt.gov.br,
139,Cuité de Mamanguape,PB,,,CUITE DE MAMANGUAPE - CENTRO,POLO UAB - CUITE DE MAMANGUAPE,Rua da Matriz,0,Centro,58289000,,(83) 3621115,() ,polo.cuitedemamanguape@gmail.com,,www.gmail.com
1056,Curitiba,PR,,,CURITIBA - ALTO DA GLÓRIA,POLO DE APOIO PRESENCIAL UAB CURITIBA,Av. João Gualberto,623,Alto da Glória,80030000,"Edifício Delta, 7.º andar, Torre B - Pref. Mun. de Curitiba-PR",(41) 32251601,(41) 985212180,polouabcuritiba@edu.curitiba.pr.gov.br,polouabctba@gmail.com,
442,Diadema,SP,-23.69552,-46.61156,DIADEMA - CENTRO,POLO DE APOIO PRESENCIAL DE DIADEMA,Rua Nossa Senhora das Vitórias.,249,Centro,9910140,,(11) 40773550,(11) 996904111,mrcostabastos@gmail.com,polodiadema@gmail.com,www.uabdiadema.com.br
848,Diamante do Norte,PR,-22.600714,-52.876318,DIAMANTE DO NORTE - CRN UEM,POLO UAB DE DIAMANTE DO NORTE,Rodovia PR 182,0,-,87990000,Km 1 - UEM - Campus Regional do Noroeste,(44) 34298000,(44) 34298300,adriana.ga.va@hotmail.com,gavadri@ig.com.br,
944,Diamantina,MG,-17.97795,-43.60415,DIAMANTINA - CENTRO,POLO DE APOIO PRESENCIAL DE EDUCACAO A DISTANCIA DE DIAMANTINA-MG,Rua da Glória,469,Centro,39100000,,(38) 35319560,() ,polo.diamantina@ead.ufvjm.edu.br,juarmachado@yahoo.com.br,
444,Diamantino,MT,-14.377439,-56.375699,DIAMANTINO - MT 240,POLO DE APOIO PRESENCIAL DO MUNICIPIO DE DIAMANTINO/MT,Rodovia Senador Roberto Campos,0,MT 240,78400000,Saída para Alto Paraguai - Antiga Escola Agrícola,() ,(65) 99815341,polouab2013@yahoo.com.br,carladrianarossi@yahoo.com.br,
446,Dianópolis,TO,-11.69578,-46.73544,DIANOPOLIS - CENTRO,POLO DE APOIO PRESENCIAL PARA O DESENVOLVIMENTO DO SUDESTE DO TOCANTINS,Praça Aurélio Antonio Araújo,2,Centro,77300000,,(63) 36921137,(63) 84134013,uabdianopolis@tecnologia.to.gov.br,celabilio@yahoo.com.br,
22,Dias d´Ávila,BA,-12.635038,-38.272824,DIAS D'AVILA - NOVA DIAS D'AVILA,POLO UAB - DIAS D'AVILA,Rua Cajahiba,221,Nova Dias D'ávila,42850-000,,(71) 36252785,(71) 99334439,uab.diasdavila@cead.ufop.br,pfg.gonzaga@gmail.com,
96,Divinolândia de Minas,MG,-18.802785,-42.617095,DIVINOLANDIA DE MINAS - CENTRO,"POLO UAB -"" PROFESSOR JOSE COELHO PERPETUO"" - DIVINOLANDIA DE MINAS -",Praça Professor Carvalhais,50,Centro,39735000,,(33) 34141683,() ,polodivinolandiauab@yahoo.com.br,,
855,Dois Vizinhos,PR,-25.748454,-530.583295,DOIS VIZINHOS - CENTRO,POLO UAB SECRETARIA MUNICIPAL DE EDUCACAO,Avenida Dedi Barichelo Montagner,520,Centro Norte,85660000,Anexo a Secretaria Municipal de Educação,(46) 35361538,(46) 99160886,educacao@doisvizinhos.pr.gov.br,,
124,Dom Eliseu,PA,,,DOM ELISEU - PDS,POLO DE APOIO PRESENCIAL DE DOM ELISEU - UAB,Rua Castro Alves,0,PDS,68633000,,(94) 33352988,() ,polouabdomeliseu@gmail.com,aquinochelly@hotmail.com,
448,Dom Pedro,MA,,,DOM PEDRO - CENTRO,POLO UAB SOCORRO CARVALHO,Rua Jorge Fernandes,0,Centro,65775-000,,(99) 36621310,() ,polouabdp@bol.com.br,,
60,Domingos Martins,ES,-20.363757,-40.658936,DOMINGOS MARTINS - CENTRO,POLO MUNICIPAL DE APOIO PRESENCIAL DE DOMINGOS MARTINS - UAB,TRAVESSA AUGUSTO SHWAMBACH,87,CENTRO,29260000,,(27) 32683181,() ,uab.dmartins@hotmail.com,elianasobrinho.numeros@hotmail.com,
140,Duas Estradas,PB,-6.688725,-35.419321,DUAS ESTRADAS - CENTRO,POLO DE APOIO E.M.PROF  MARIA DUTRA - DUAS ESTRADAS - UAB,Rua Presidente Médici,154,Centro,58268000,Escola Municipal E. F. Diva Lira de Carvalho,(83) 32651049,(83) 32651034,gal.duasestradas@gmail.com,gal.uab@hotmail.com,
450,Duque de Caxias,RJ,-22.793457,-43.301484,DUQUE DE CAXIAS - JARDIM 25 DE AGOSTO,POLO UAB - DUQUE DE CAXIAS,Rua Marechal Floriano,555,Bairro Jardim 25 de agosto,25075000,,(21) 26533963,(21) 36573025,caxias.cederj@ig.com.br,,
451,Durandé,MG,-20.2028248,-41.8002561,DURANDE - CENTRO,POLO UAB DURANDE,Avenida Alvaro Moreira da Silva,615,Centro,36974000,Prédio,(33) 33421125,(33) 33421100,polodurandeufjf@gmail.com,glaucejc@bol.com.br,
61,Ecoporanga,ES,-18.372465,-40.828363,ECOPORANGA - CENTRO,POLO UNIVERSITARIO DE APOIO PRESENCIAL DA UNIVERSIDADE ABERTA DO BRASIL DE ECOPORANGA,Rua José da Cruz,0,Centro,29850000,,(27) 37551671,(27) 37551368,SUELI.UABECOPORANGA@GMAIL.COM,DIRETORAVIANA@HOTMAIL.com,
159,Elesbão Veloso,PI,-6.19359,-42.16607,ELESBAO VELOSO - CAPITAO MUNDOCO,POLO DE APOIO PRESENCIAL TERRITORIO VALE DO SAMBITO - ELESBAO VELOSO,Praça Padre José Paulo do Rêgo,219,Capitão Mundoco,64325000,U.E. Joana Nonata da Silva,(86) 32163393,(86) 32161560,reitorcalberto@gmail.com,supes.seduc@gmail.com,
454,Encantado,RS,-29.224906,-51.891309,ENCANTADO - LAMBARI,POLO PRESENCIAL DE ENCANTADO,Rua Alegrete,811,Lambari,95960-000,Fica no Centro Municipal de Educação de Encantado,(51) 37516337,() ,uab.poloencantado@gmail.com,ls.sandri@gmail.com,
455,Engenheiro Beltrão,PR,-23.799899,-52.261626,ENGENHEIRO BELTRAO - CENTRO,POLO UAB - ENGENHEIRO BELTRAO,Rua Clotario Portugal,115,Centro,87270000,,(44) 35372642,() ,polouabbeltrao@bol.com.br,,
160,Esperantina,PI,-3.886991,-42.236816,ESPERANTINA - CENTRO,POLO DE APOIO PRESENCIAL DA UAB EM ESPERANTINA - UAB,Rua Reginaldo de Araújo Bezerra,68,Centro,64180-000,,(86) 33831439,() ,prof.antonio.carlos@bol.com.br,uabesperantina@hotmail.com,
23,Esplanada,BA,-11.793256,-37.948438,ESPLANADA - CENTRO,POLO UAB - ESPLANADA,Praça Nossa Senhora da Pompeia,172,Centro,48370000,Anexo a Escola Antonio Magalhães,(75) 34271309,(75) 34271486,poloesplanada@gd.com.br,rosanacardial@gmail.com,
267,Estância,SE,,,ESTANCIA - CENTRO,POLO SENADOR JULIO CESAR LEITE,Praça Jackson de Figueiredo,75,Centro,49200000,,(79) 35221461,(79) 98792971,polouabestancia.se@gmail.com,polouabestancia1@gmail.com,
1080,Esteio,RS,,,ESTEIO - PARQUE AMADOR,POLO UAB - ESTEIO,RUA ALEGRETE,455,PARQUE AMADOR,93280060,PREDIO DA SECRETARIA DE EDUCAÇÃO DE ESTEIO,(51) 34730601,() ,polouabesteio455@gmail.com,polo.uab@esteio.rs.gov.br,
458,Euclides da Cunha,BA,-10.5038065,-39.00975991656,EUCLIDES DA CUNHA - JEREMIAS,CAMPUS XXII DA UNIVERSIDADE DO ESTADO DA BAHIA,Rua Enock Canário de Araújo,0,Jeremias,48500-000,,(75) 32713227,(75) 999980989,Itsantos@uneb.br,Ivetesantoss@bol.com.br,
460,Faxinal,PR,-23.9984416,-51.3249586,FAXINAL - CENTRO,POLO UAB DE FAXINAL,AV. EUGÊNIO BASTIANI,984,CENTRO,86840000,,(43) 34613076,(43) 34613507,uabfax@gmail.com,lenifax@gmail.com,
238,Faxinal do Soturno,RS,,,FAXINAL DO SOTURNO - CENTRO,POLO DE APOIO PRESENCIAL FAXINAL DO SOTURNO,"Rua 7 de Setembro, 790",,Centro,97220000,,(55) 32632354,(55) 32633700,uab@faxinal.com,eliana.uabfax@gmail.com,
4,Feijó,AC,-81.66976,-70.350065,FEIJO - CIDADE NOVA,CENTRO ESTADUAL DE EDUCACAO A DISTANCIA - FEIJO - UAB,Tv. Edmundo Ribeiro do Carmo,220,Cidade Nova,69960000,,(68) 34633607,() 99613698,ENSINO.EDUCACAO@AC.GOV.BR,,
463,Flor da Serra do Sul,PR,-26.259078,-53.311858,FLOR DA SERRA DO SUL - CENTRO,POLO DE APOIO PRESENCIAL DE FLOR DA SERRA DO SUL,Rua Cristiano Bender,419,Centro,85618000,,(46) 35651270,() ,oscar_rombaldi@hotmail.com,,
881,Floresta,PE,-8.601111,-38.568611,FLORESTA - CENTRO,NUCLEO DE TECNOLOGIA EDUCACIONAL - NTE,Av. Deputado aldemar Ferraz,65,centro,56400000,GRE-Gerência Regional de Educação,(87) 38771358,() ,dilmamarques4@yahoo.com.br,,
466,Florianópolis,SC,-27.590151,-48.545237,FLORIANOPOLIS - CENTRO,POLO UAB FLORIANOPOLIS,Rua Ferreira Lima,82,Centro,88015420,Subsolo,(48) 32120910,(48) 32120929,uabfloripa@pmf.sc.gov.br,,http://www.pmf.sc.gov.br/entidades/uab
97,Formiga,MG,-20.465337,-454.21445,FORMIGA - ROSARIO,POLO UAB - FORMIGA,Alderico Nogueira,470,Sagrado Coração de Jesus,35570000,,(37) 33291800,() ,uabpoloformiga@gmail.com,,
79,Formosa,GO,15.32459,472.0395,FORMOSA - ABREU,POLO DE APOIO PRESENCIAL DO MUNICIPIO DE FORMOSA - UAB,Praça 21 de abril,60,Abreu,73803025,,(61) 36311395,(61) 36311069,polouabformosa@hotmail.com,,
470,Fortaleza dos Nogueiras,MA,-6.964341,-46.171726,FORTALEZA DOS NOGUEIRAS - NOVA FORTALEZA,POLO DE APOIO PRESENCIAL DA UAB DE FORTALEZA DOS NOGUEIRAS,Rua Raimundo Brauna,0,Nova Fortaleza,65805-000,,(99) 35311363,(99) 35311477,coord.fdn@gmail.com,mariia.jjose@hotmail.com,
172,Foz do Iguaçu,PR,-25.446452,-54.584051,FOZ DO IGUACU - PARQUE TECNOLOGICO ITAIPU,POLO UAB - FOZ DO IGUACU,Av. Tancredo Neves,6731,Itaipu Binacional,85867-970,Parque Tecnológico Itaipu,(45) 35767030,() ,edilsonbalzzan@hotmail.com,,www.pti.org.br/uab
471,Franca,SP,-20.545343,-47.401291,FRANCA - CENTRO,UAB POLO FRANCA,Avenida Champagnat,1808,Centro,14400320,,(16) 37119224,() ,uabpolofranca@gmail.com,claudiabolela@hotmail.com,
472,Francisco Sá,MG,-16.41022,-43.49501,FRANCISCO SA - CENTRO,FRANCISCO SA,Rua João Catulino de Andrade,748,Centro,39580000,,(38) 32331765,(38) 32332193,polouabfranciscosa@yahoo.com.br,,
945,Frutal,MG,-19.97810,-48.95630,FRUTAL - UNIVERSITARIO,POLO UAB - FRUTAL (FRUTAL/MG),Av Professor Mario Palmério,1001,Universitário,38200000,Bloco B,(34) 34219350,() ,polouabfrutal@hotmail.com,,
162,Gilbués,PI,-9.836913,-45.332316,GILBUES - SANTO ANTONIO,POLO CHAPADA DAS MANGABEIRA - GILBUES - UAB,Av. João Dias Figueiredo,0,Santo Antônio,64930000,,(89) 35781823,(89) 35781626,fatimauabgilbues@gmail.com,fatimalbo@hotmail.com,
80,Goianésia,GO,-15.329231,-49.116376,GOIANESIA - SANTA LUZIA,POLO DE APOIO PRESENCIAL DA UAB DE GOIANESIA,Rua 37,354,Santa Luzia,76380000,Colégio Esatual Salvador Leite,(62) 39351104,() ,polouabgoianesiago@gmail.com,,
477,Goiás,GO,,,GOIAS - ALTO DO SANTANA,POLO DE EDUCACAO A DISTANCIA VILA BOA DE GOIAS,Rua Vereador Hugo Argenta,0,Alto Santana,76600-000,,(62) 33714061,() ,polouabgoias@hotmail.com,elietecampos@hotmail.com,
478,Goioerê,PR,-24.191746,-53.03054,GOIOERE - CENTRO,POLO UAB - GOIOERE,Av Daniel Portela,1354,Centro,87360000,Próximo a rodoviária,(44) 35226005,(44) 39093048,sec.goio@gmail.com,alinebrandani@hotmail.com,
98,Governador Valadares,MG,-18.850757,-41.945029,GOVERNADOR VALADARES - CENTRO,UAB - POLO DE APOIO PRESENCIAL DE EDUCACAO A DISTANCIA DE GOVERNADOR VALADARES,Rua 7 de Setembro,2479,Centro,35010-172,Escola Estadual Prefeito Joaquim Pedro Nascimento,(33) 32216716,() ,uab.coord@valadares.mg.gov.br,uab.sec@valadares.mg.gov.br,
480,Grajaú,MA,-5.81047,-45.98385,GRAJAU - TREZIDELA,POLO UAB - PROFESSOR PORFIRIO PEREIRA  SANTOS,BR-226,0,Trezidela,65940000,,() ,() ,uabgrajau@gmail.com,educacao.grajau@hotmail.com,httwwwuabgrajau@hotmail.com
896,Gravatá,PE,-81.977583,-35.5692828,GRAVATA - CENTRO,POLO UAB ESTADUAL GRAVATÁ,Rua Quintino Bocaiuva,0,Centro,55640000,Escola de Referência Prof. Antônio Farias,(81) 996845007,(81) 996845007,polouabgravata@gmail.com,dayvesson@hotmail.com,
482,Grossos,RN,-4.95242,-37.20023,GROSSOS - BOA ESPERANCA,EDUCA GROSSOS,RUA CORONEL SOLON,10,BOA ESPERANÇA,59675000,,(84) 33273562,() ,uabpeducagrossos@yahoo.com.br,,
208,Guamaré,RN,-15.721762,937.357811,GUAMARE - CENTRO,POLO PRESENCIAL DE GUAMARE - RN,Rua Manoel Lucas Miranda,23A,Centro,59598000,,(84) 35252978,(84) 35252975,polouabguamare@hotmail.com,marcia_leite2009@hotmail.com,
834,Guaraí,TO,-8.845274,-48.505854,GUARAI - SETOR VANDERLITO,POLO DE EDUCACAO A DISTANCIA DE GUARAI,Anenida Tocantins,3113,Setor Vanderlito,77700000,,(63) 34642352,() ,mariatintinha@yahoo.com.br,uabguarai@tecnologia.gov.br,
871,Guaraniaçu,PR,-25.097295,-528.782221,GUARANIACU - CENTRO,PROFESSORA IRACEMA NAZARE MACHADO,Rua Eudóxio Antônio Badotti,51,Centro,85400000,,(45) 32322637,(45) 32321643,universidade@guaraniacu.pr.gov.br,,
487,Guarantã do Norte,MT,-9.9518323,-54.9067669,GUARANTA DO NORTE - CENTRO,UAB-GUARANTA DO NORTE,Av Alcides Moreno Capelini,555,Centro,78520-000,,(66) 35521882,(66) 35523281,uabgta@gmail.com,coord-polo-guaranta@ifmt.edu.br,
1131,Guarapuava,PR,,,GUARAPUAVA - INDUSTRIAL,POLO UAB GUARAPUAVA,Vereador Oswaldo Camilo Mendes,200,Industrial,85100-970,Escola total- Esc.Mun. Iná Ribas Carli,(42) 36241643,(42) 999211562,polouabguarapuava@gmail.com,tatyfranke@hotmail.com,
276,Guarulhos,SP,-23.41201,-464.4348,GUARULHOS - MACEDO,CENTRO MUNICIPAL DE EDUCACAO ADAMASTOR - CME,Monteiro Lobato,734,Macedo,7112000,- até 1589/1590,(11) 24087603,(11) 24725423,adamastor.guarulhos@gmail.com,adamastor.guarulhos@gmail.com,
489,Gurupi,TO,-11.746663,-490.482641,GURUPI - ZONA RURAL,"POLO DE EDUCACAO A DISTANCIA, NO MUNICIPIO DE GURUPI","Rua Badejós, Lote 7, Chácara",69/72,Zona Rural,77402970,Campus Gurupi,(63) 33113509,(63) 999767790,uabgurupi@seduc.to.gov.br,,
239,Herval,RS,,,HERVAL - CENTRO,POLO UNIVERSITARIO DE HERVAL,RUA JOSÉ MARIA DÁVILA,336,CENTRO,96310-000,,(53) 32671399,(53) 32671215,polouabherval@gmail.com,,
240,Hulha Negra,RS,-31.407957,-53.870152,HULHA NEGRA - CENTRO,POLO UAB HULHA NEGRA,Avenida Getúlio Vargas,0,Centro,96460-000,,(53) 32491365,(53) 32491330,polouabhulhanegra@gmail.com,silene.smechn@gmail.com,hulhanegra.rs.gov.br
491,Humberto de Campos,MA,-2.608467,-43.461692,HUMBERTO DE CAMPOS -  BACABEIRA,POLO UAB HUMBERTO DE CAMPOS,Rua São Miguel,0,Bacabeira,65180000,,(98) 991539909,() ,maunasocorro@yahoo.com.br,,
173,Ibaiti,PR,-23.859456,-50.197484,IBAITI - S.JUDAS TADEU,POLO UAB - POLO DE APOIO PRESENCIAL AO ENSINO SUPERIOR A DISTANCIA DE IBAITI,Rua São Judas Tadeu,190,São Judas Tadeu,84900-000,Em frente a Rádio Colina,(43) 35465295,() ,polouabibaiti@yahoo.com.br,,
492,Ibicuí,BA,,,IBICUI - CENTRO,UNIVERSIDADE ABERTA DO BRASIL - POLO DE IBICUI,Av. Lomanto Júnior,0,Centro,45290-000,,(73) 32722294,() ,uab2_ibicui@hotmail.com,,
277,Igarapava,SP,-20.035491,-47.743224,IGARAPAVA - VILA GOMES,POLO UNIVERSITARIO ABERTO MUNICIPAL DE IGARAPAVA - UAB,Rua Azarias  Arantes,0,Vila Gomes,14540-000,,(16) 31722638,() 31724806,educpmi2@yahoo.com.br,angelabisinoto52@gmail.com,
495,Igarapé-Miri,PA,-1.970986,-48.965622,IGARAPE-MIRI - CIDADE NOVA,POLO UAB-IGARAPE-MIRI: CENTRO DE FORMACAO ACAI,Rua Simplicio de Moraes,0,Cidade Nova,68430000,,(91) 37551351,() ,uab_uepaigarapemiri@hotmail.com,gracieteeluziel@hotmail.com,
498,Ilhéus,BA,-14.8024973,-39.03185971656,ILHEUS - MALHADO,POLO UAB - ILHEUS,Rua epitácio Pessoa,42,cENTRO,45659050,,(73) 36341747,(73) 36344001,polouabilheus@gmail.com,monteiroilheus@gmail.com,http://polouabilheus.blogspot.com
99,Ilicínea,MG,-20.9414214,-458.2456264,ILICINEA - CENTRO,POLO UAB - ILICINEA,Praça Padre João Lourenço Leite,220,Centro,37175000,,(35) 38541238,() ,ilicinea_polouab@yahoo.com.br,,
83,Imperatriz,MA,-5.548523,-47.474746,IMPERATRIZ - PRACA UNIAO,POLO UAB IMPERATRIZ,Rua Dom Pedro II,0,União,65901090,Praça União,(99) 35360179,(99) 981667692,polouab.itz2@gmail.com,fnoronhalo@gmail.com,
500,Indaial,SC,-26.899731,-49.230885,INDAIAL - CENTRO,POLO UAB-INDAIAL,Rua Marechal Floriano Peixoto,560,Centro,89130-000,,(47) 33947233,() ,polouab2@indaial.sc.gov.br,janetefink@gmal.com,
163,Inhuma,PI,-6.663915,-41.70841,INHUMA - LIBERDADE,POLO LUIZ DE SOUSA LEAL - INHUMA - UAB,Rua João Gonsalves de Holanda,212,Liberdade,64535000,,(89) 34771212,() 34771214,educacao@inhuma.pi.gov.br,gracaaguiar2009@hotmail.com,
501,Inhumas,GO,-16.358333,-49.506439,INHUMAS - VILA HEITOR,POLO DE APOIO PRESENCIAL DA UAB INHUMAS,Rua 05,153,Vila Heitor,75400-000,Praça João Heitor de Paula,(62) 35144389,(62) 35111852,polouabinhumas09@gmail.com,lupessoni@gmail.com,
502,Ipanema,MG,-19.800639,-41.717056,IPANEMA - CENTRO,POLO UAB DE IPANENA,Rua Santos Dumont,337,Centro,36950000,,(33) 33141334,(33) 33143000,uabipanema@ipanema.mg.gov.br,educacao@ipanema.mg.gov.br,
100,Ipatinga,MG,-19.508789,-42.565102,IPATINGA - BOM RETIRO,POLO UAB DE IPATINGA - UNIVERSIDADE ABERTA DO BRASIL,Rua Fernando de Noronha,490,Bom Retiro,35160225,Anexo à Escola Municipal Padre Cícero de Castro,(31) 38298334,(31) 38298369,uab.coordenacao@ipatinga.mg.gov.br,ipatinga.polo.uab@gmail.com,
1087,Ipirá,BA,,,IPIRA - SETE DE JULHO,POLO UNIVERSIDADE ABERTA DO BRASIL – UAB IPIRA-BA,Rua Manuel Oliveira e Silva,147,Sete de Julho,44600-000,Campus Universitario,(75) 32543126,() ,educacaoipira@ig.com.br,,
504,Ipiranga,PR,-25.023281,-50.585915,IPIRANGA - CENTRO,POLO UAB  IPIRANGA,Rua João Ribeiro da Fonseca,74,Centro,84450000,,(42) 32421596,(42) 32421897,ipiranga@ead.uepg.br,elediane.l@hotmail.com,
149,Ipojuca,PE,-8.44702,-35.06279,IPOJUCA - CENTRO,POLO DE APOIO PRESENCIAL DA UAB IPOJUCA,Rua do Colégio,0,Centro,55590000,,(81) 35510165,(81) 35510014,uabipojuca.pe@gmail.com,luizeduardo.buarque@gmail.com,
24,Ipupiara,BA,,,IPUPIARA - CENTRO,POLO UAB - IPUPIARA,Rua Aurora,5,Centro,47590000,,(77) 36461114,(77) 991617303,uabipupiara@hotmail.com,zregina2014@gmail.com,
222,Iracema,RR,,,IRACEMA - CENTRO,POLO UAB - IRACEMA,R. Isidoro Rodrigues,0,CENTRO,69348000,Escola D. Pedro II,(95) 35431138,(95) 35431094,iracema@univirr.edu.br,edivaninunesaa@gmail.com,
507,Irecê,BA,-41.857648,-11.305464,IRECE - CENTRO,POLO UAB IRECE,AVENIDA CEL. TERÊNCIO DOURADO,0,CENTRO,44900000,ESPAÇO UFBA,(74) 36414792,(74) 36411958,uabpoloirece@gmail.com,,
1089,Iretama,PR,,,IRETAMA - CENTRO,POLO UAB IRETAMA,Av Paraná,87,Centro,87280000,Escola Municipal Maria de Lurdes Melo,(44) 35731273,(44) 35731351,uabiretama@gmail.com,carinafigueiredo@bol.com.br,
509,Itaberaba,BA,-12.532728,-40.307999,ITABERABA - CENTRO,UAB POLO ITABERABA,Avenida Rio Branco,367,Centro,46880000,Antiga Escola Castro Cincurá,(75) 32516644,() ,uab11itaberaba.ba@gmail.com,uabpoloitaberaba@gmail.com,
101,Itabira,MG,-19.57570,-432.8496,ITABIRA - AMAZONAS,POLO DE APOIO PRESENCIAL DE ITABIRA - UAB,Rua Jacutinga,15,Campestre I,35900086,Secretaria Municipal de Educação,(31) 38392670,(31) 38392657,polouab2013@gmail.com,,
510,Itabuna,BA,-14.805907,-39.293174,ITABUNA - LOMANTO JUNIOR,POLO UAB ITABUNA/BA,Av. J.S. Pinheiro,0,Lomanto Júnior,45600-013,Prédio do Colégio Modelo Luis Eduardo Magalhães,(73) 36132980,() ,polouab.itabuna@educacao.ba.gov.br,polouabitabuna@gmail.com,
842,Itacoatiara,AM,-3.13435,-58.43353,ITACOATIARA - SAO FRANCISCO,POLO UAB ITACOATIARA UNIVERSIDADE FEDERAL DO AMAZONAS,Rua Nossa Senhora do Rosário,0,centro,69100000,,() ,() ,polouabitac@hotmail.com,,
512,Itaguaí,RJ,-22.867397,-43.775459,ITAGUAI - CENTRO,POLO UAB/CEDERJ ITAGUAI,Rua Divino Jose Batista,125,Centro,23815000,Colegio Municipal Senador Teotonio Vilela,() ,() ,polo-itaguai@cederj.rj.gov.br,diretor-itaguai@cederj.rj.gov.br,
981,Itainópolis,PI,,,ITAINOPOLIS - COHAB,POLO DE ITAINOPOLIS,Praça Engenheiro Domingos Sávio,0,COHAB,64565000,,(86) 32163393,() ,supes.seduc@gmail.com,,
514,Itajaí,SC,-26.921625,-48.65355,ITAJAI - FAZENDA,POLO DE APOIO PRESENCIAL GERED/SDR ITAJAI,AV. SETE DE SETEMBRO,0,FAZENDA,88301200,,(47) 32498813,() ,lucianavgarcia@sed.sc.gov.br,luciana_vaz.sdr@hotmail.com,
25,Itamaraju,BA,-17.049002,-39.527578,ITAMARAJU - JAQUEIRA,POLO UAB - ITAMARAJU,RUA IRMAOS ANDRADA 1635,1635,JAQUEIRA,45836000,3 ANDAR DO COLEGIO ESTADUAL MODELO,(73) 32943625,() ,polouabitamaraju@yahoo.com.br,deliaeducadora@gmail.com,não tem
515,Itamarandiba,MG,-17.8534744,-42.8567559,ITAMARANDIBA - FLORESTAL,POLO ITAMARANDIBA,Av. Jequitinhonha,298,Florestal,39670000,,(38) 35213077,(38) 35211559,glaucia.oliveirasantos@gmail.com,glaucia.oliveirasantos@gmail.com,
516,Itambé,PR,-23.661988,-51.98436,ITAMBE - PARQUE INDUSTRIAL,POLO DE APOIO PRESENCIAL DE ITAMBE,Rua Luis Fedrigo,3,Parque Industrial,87175000,,(44) 32311366,(44) 32311592,uabitambe@hotmail.com,ivetebpereira@hotmail.com,
102,Itamonte,MG,-22.2860217,-44.8704651,ITAMONTE - CENTRO,POLO UAB - ITAMONTE,Rua Presidente Vargas,149,Centro,37446-000,,(35) 33631103,() ,uabitamonte@yahoo.com.br,,
26,Itanhém,BA,-17.08113,-40361,ITANHEM - SAO JOAO,CENTRO DE EDUCACAO ABERTA E A DISTANCIA DE ITANHEM - CEADI,Rua Nova Venécia,0,São João,45970000,,(73) 988299620,(73) 32952262,denise.itanhem.uab@gmail.com,uab.itanhem@cead.ufop.br,
184,Itaocara,RJ,-21.77006,-42.07488,ITAOCARA - CENTRO,POLO UAB - ITAOCARA,Rua Nilo Peçanha,471,Centro,28570000,Colégio Municipal Professor Nildo Caruso Nara,(22) 38614844,(22) 38618300,polo-itaocara@cecierj.edu.br,itaocaracederj@yahoo.com.br,
517,Itapema,SC,-27.115912,-486.16649,ITAPEMA - MORRETES,POLO DE APOIO PRESENCIAL DE ITAPEMA,Rua 612,64,taboleiro,88220000,,(47) 32671450,(47) 33682267,uabpolodeitapema@gmail.com,,
62,Itapemirim,ES,-21.009187,-40.828506,ITAPEMIRIM - CENTRO,POLO DE APOIO PRESENCIAL DO SISTEMA UNIVERSIDADE ABERTA DO BRASIL - UAB DE ITAPEMIRIM/ES.,Av. Cristiano Dias Lopes Filho,0,Centro,29330000,,(28) 35296064,(28) 35296170,silvanabatistasp@gmail.com,,
185,Itaperuna,RJ,-21.200319,-41.897843,ITAPERUNA - PRESIDENTE COSTA E SILVA,POLO UAB - ITAPERUNA,Av. Zulamith Bittencourt,0,Presidente Costa e Silva,28300000,CIEP LINA BOBARDI - Terceiro pavimento,(22) 38224309,(22) 38227489,polo-itaperuna@cecierj.edu.br,mvalleriote@gmail.com,www.cederj.edu.br
518,Itapetinga,BA,-15244241,-40249709,ITAPETINGA - CENTRO,PREDIO ESCOLAR JOSE VAZ ESPINHEIRA,Rua Visconde do Rio Branco,0,Centro,45700000,,(77) 32611784,(77) 32613185,uabitapetinga@gmail.com,jusci_jesus@hotmail.com,
279,Itapetininga,SP,-23.571876,-47.993877,ITAPETININGA - TABOAOZINHO,POLO CHOPIN TAVARES DE LIMA,Av. Dr. Ciro de Albuquerque,4750,Taboaozinho,18213615,,(15) 32734590,() 32734238,uab@itapetininga.sp.gov.br,projeto@itapetininga.sp.gov.br,www.itapetininga.sp.gov.br
280,Itapevi,SP,-23.551768,-469.40622,ITAPEVI - COHAB/SETOR B,POLO UAB - ITAPEVI,Professor Irineu Chaluppe,65,Jardim Itapevi,6653180,,(11) 41438400,(11) 41427854,sec.educacao@itapevi.sp.gov.br,uabitapevisp@gmail.com,
27,Itapicuru,BA,,,ITAPICURU - CENTRO,POLO UAB - ITAPICURU,Praça da Bandeira,320,Centro,48475-000,,(75) 34302323,(75) 34302153,poloitapicuru@gmail.com,,poloitapicuru@gmail.com
520,Itapipoca,CE,-3.497666,-39.576815,ITAPIPOCA - COQUEIRO,ITAPIPOCA,Rua João Cordeiro,0,Coqueiro,62000-500,,(88) 36313379,() ,UAB-ITAPIPOCA@HOTMAIL.COM,jcsantos7@hotmail.com,
142,Itaporanga,PB,-7.30035,-38.25159,ITAPORANGA - CENTRO,POLO UNIVERSITARIO DE APOIO PRESENCIAL - UAB - ITAPORANGA-PB,Avenida Padre Lourenço,328,Centro,58780000,,(83) 34513558,() ,polo.itaporangapb@gmail.com,,
241,Itaqui,RS,,,ITAQUI - CENTRO,UAB - POLO UNIVERSITARIO DA FRONTEIRA OESTE,Rua Euclides Aranha,1288,Centro,97650-000,,(55) 34337480,() ,uab@itaqui.rs.gov.br,uab.poloitaqui.indira@gmail.com,uab-poloitaqui.blogspot.com
1177,Itarema,CE,-29.21083,-399.16519,ITAREMA - CENTRO,Polo UAB de Itarema,Praça Nossa Senhora de Fátima,0,Centro,72590000,,(88) 36671666,(88) 999157405,clenio_marques@hotmail.com,,
946,Ituiutaba,MG,-19.01507,-49.55042,ITUIUTABA - CENTRO,POLO ITUIUTABA,Rua 26,425,Centro,38300080,,(34) 32718204,(34) 32718205,uab_itba@yahoo.com.br,viviane.suzana@yahoo.com.br,
63,Iúna,ES,,,IUNA - NITEROI,POLO MUNICIPAL DE EDUCACAO ABERTA E A DISTANCIA  DE IUNA,Av. Mintas Osório de Mattos,1459,Centro,29390000,Parque de Exposições Cassiono Osório Júnior,(28) 35453346,() ,polouabiuna@gmail.com,mrftristao@gmail.com,
837,Ivaiporã,PR,-24.2370624,-51.6613103,IVAIPORA - CENTRO,POLO UAB DE IVAIPORA,Praça da Independência,385,Centro,86870000,,(43) 34722516,() ,polouab3ivaipora@gmail.com,cid_depto@hotmail.com,
526,Jaboticatubas,MG,-19.52171,-43.731232,JABOTICATUBAS - SAO VICENTE,UAB-POLO JABOTICATUBAS,Rua Joana Melo,1300,São Vicente,35830000,,(31) 36831715,() ,educacao@jaboticatubas.com,,
28,Jacaraci,BA,,,JACARACI - CENTRO,POLO DE APOIO PRESENCIAL DA UNIVERSIDADE ABERTA DO BRASIL - JACARACI - BAHIA,Av. Mozart Davide S/N,0,Centro,46310000,,(77) 34662155,(77) 34662026,POLOUAB.JACARACIBA@GMAIL.COM,coqui.kok@hotmail.com,
527,Jacarezinho,PR,-23.157498,-49.97287,JACAREZINHO - CENTRO,UNIVERSIDADE ABERTA DO BRASIL - POLO JACAREZINHO,Rua Costa Junior,1065,centro,86400000,,(43) 39113148,(43) 35258700,srtalves@hotmail.com,uabpolojacarezinho@hotmail.com,
242,Jacuizinho,RS,-29.03095,-53.06796,JACUIZINHO - CENTRO,POLO UAB - JACUIZINHO,Rua Nelcindo Muratt,0,centro,99457000,Anexo a Escola Municipal Leonel de Moura Brizola,() 36291085,(55) ,jacuizinho.08polo@gmail.com,,
529,Jacundá,PA,-4.444524,-49.11894,JACUNDA - SANTA RITA,POLO UAB DE JACUNDA,Rua Santa Teresa,0,Bela Vista,68590-000,,() ,() ,josejesus126@gmail.com,semecjacunda@yahoo.com.br,
1364,Jaguapitã,PR,-23.118104,-515.31971,JAGUAPITÃ - CENTRO,Polo UAB Jaguapitã,Rua Plácido de Castro,380,Centro,86610000,,(43) 32721014,(43) 99098535,escolamunicipalpaulofreire@hotmail.com,dofthemys.pr@gmail.com,
530,Jaguarão,RS,-32.557172,-53.371948,JAGUARAO - CENTRO,POLO CIDADE HEROICA DE APOIO PRESENCIAL UAB,Rua 3 de Outubro,170,Centro,96300000,,(53) 32616705,(53) 32616456,alfpaiva@bol.com.br,polouabjaguaraors@gmail.com,
1054,Jaguarari,BA,,,JAGUARARI - CENTRO,POLO UAB DE JAGUARARI,Rua do Facheiro,578,Distrito Pilar,48967000,Escola Thodulo de Albuquerque,(74) 35321035,() ,semecjaguarari@hotmail.com,,
531,Jaguariaíva,PR,-24.258527,-497.16298,JAGUARIAIVA - CIANE,POLO UAB - JAGUARIAIVA,Rua João Thon,0,Cianê,84200000,,(43) 35351844,(43) 99251343,polouabjaguariaiva@gmail.com,,
532,Jaguaribe,CE,-5.893641,-38.621871,JAGUARIBE - CENTRO,POLO UAB JAGUARIBE / ESCOLA PROFESSOR GUTENBERG BARBOSA SILVA,Rua Padre João Bandeira,0,Centro,63475-000,,(88) 999652232,(88) 999652232,tereza_jbe@hotmail.com,polouab@jaguaribe.ce.gov.br,
1119,Jaíba,MG,,,JAIBA - CENTRO,E.MUNICIPAL ROQUE CARDOSO DOS SANTOS,Praça João XXIII,92,Centro,39508000,Próximo a Igreja São Francisco,(38) 38331656,() ,roquecardoso_@hotmail.com,,
797,Jaicós,PI,-7.353127,-41.138741,JAICOS - CENTRO,POLO DE APOIO PRESENCIAL DA UAB/PI DE JAICOS - PIAUI,Rua Deputado Constâncio Carvalho,264,Serranópolis,64575000,,(89) 35751148,() ,rosenildatl@hotmail.com,,
281,Jales,SP,-20.248244,-50.556709,JALES - COHAB JACB II,POLO REGIONAL DE JALES - UAB,Av. Brasília,934,Bairro COHAB JACB2,15707638,,(17) 996719409,(17) 36215504,uab-polojales@hotmail.com,niltonmarquesjales@gmail.com,www.uabjales.com.br
533,Janaúba,MG,-15.77877,-43.36757,JANAUBA - VEREDAS,POLO JANAUBA,Rua Manuel Bandeira,460,Veredas,39440000,Prédio do CAIC,(38) 38213378,(38) 38214957,educacao@janauba.mg.gov.br,ARMANDOLINHARES@ZIPMAIL.COM.BR,
282,Jandira,SP,-23.54082,-46.89571,JANDIRA - JARDIM EUROPA,POLO UAB - JANDIRA,R Francisco Araújo Chaves,120,Jardim Europa,6626020,,(11) 47892459,(11) 46195786,polouabdejandira@gmail.com,uabjandiracoord@gmail.com,
103,Januária,MG,-15.479229,-44.366095,JANUARIA - VILA FATIMA,POLO UAB - JANUARIA,Rua do Sertanejo,212,Vila Fátima,39480000,Prédio da UNIMONTES,() ,(38) 36214559,uabpjanuariamg@yahoo.com.br,ceciliaprof43@yahoo.com.br,
268,Japaratuba,SE,,,JAPARATUBA - CENTRO,POLO UAB - JAPARATUBA,Av. Rio de Janeiro,0,Centro,49960-000,Anexo ao Estádio Tozão,(79) 32722355,() ,uabem.japaratuba@gmail.com,,
1091,Japorã,MS,,,JAPORA - CENTRO,TEKOHA GUARANI POLO – EXTENSAO CHAMOI PO`I – JOAQUIM MARTINS,Comunidade do Sr Alexandre,0,Setor 02,79985000,,(67) 81831733,() ,joaquimguaraninhandeva@yahoo.com.br,,
243,Jaquirana,RS,-28.8859,-50.363783,JAQUIRANA - CENTRO,POLO UAB - JAQUIRANA,Rua Cruzeiro do Sul,425,Centro,95420000,,(54) 32531042,(54) 32531100,uabjaquirana@gmail.com,rvsumari@gmail.com,
1187,Jaraguá do Sul,SC,-26.480213,-490.952896,JARAGUÁ DO SUL - NOVA BRASÍLIA,Polo UAB de Jaraguá do Sul,Rua Lourenço Kanzler,177,Nova Brasília,89252240,,(47) 33710159,(47) 99557021,id7996@jaraguadosul.sc.gov.br,,
534,Jaú,SP,-22.295097,-48.560188,JAU - CENTRO,POLO UAB JAU,Rua Quintino Bocaiuva,532,Centro,17201470,,(14) 36225838,(14) 36263802,smerchanferraz@gmail.com,paduasalles.jau@bol.com.br,
535,Jauru,MT,-15.32452,-58.8458,JAURU - CRUZEIRO,POLO UAB DE JAURU - MT,Avenida Padre Nazareno Lanciotti,1820,Cruzeiro,78255000,Núcleo Pedagogico de Jauru-UNEMAT-CEAD,(65) 32441723,(65) 32441080,robertojauru3@gmail.com,coord.jauru.dead@unemat.br,
536,Jequié,BA,-13.92298,-40.08374,JEQUIÉ - CAMPO DO AMÉRICA,POLO DE APOIO PRESENCIAL RIO DAS CONTAS DA UNIVERSIDADE ABERTA DO BRASIL,Rua Manoel Vitorino,566,Campo do América,45203165,Anexo ao prédio da secretária de educação,(73) 35278570,() ,fagulopes@hotmail.com,,
1150,Jequitinhonha,MG,-16.432543,-41.003552,JEQUITINHONHA - CENTRO,CVT/ JEQUITINHONHA,Rua Coronel Ramiro Pereira,228,Centro,39960000,Próximo a Prefeitura Municipal de Jequitinhonha,(33) 37411499,(33) 37411312,jequitinhonha@uaitec.mg.gov.br,polouabjequitinhonha@gmail.com,
213,Ji-Paraná,RO,-10.83398,-61.96014,JI-PARANA - JARDIM DOS IMIGRANTES,POLO UAB - JI-PARANA,Transcontinental,437,Centro,76900041,,(69) 99948844,() ,UABPOLOJIPARANA@GMAIL.COM,,
1072,Joaçaba,SC,,,JOACABA - CENTRO,POLO DE JOACABA,Rua Roberto Trompowsky,88,Centro,89600000,Ilha,(49) 35279330,() ,anaclaudia@jca.sdr.sc.gov.br,anacgbela@hotmail.com,
104,João Monlevade,MG,-19.820888,-431.37488,JOAO MONLEVADE - VILA TANQUE,POLO DE APOIO PRESENCIAL UAB - JOAO MONLEVADE,Wilson Alvarenga,830,Carneirinhos,35930001,Centro Educacional de João Monlevade,(31) 38521305,() ,uab.joaomonlevade@cead.ufop.br,erica.cotta@oi.com.br,
143,João Pessoa,PB,-7.127503,-34.853091,JOAO PESSOA - EXPEDICIONARIOS,POLO UAB JOAO PESSOA,Av. Coremas,332,Centro,58013-430,Próximo ao Hospital dos Olhos,(83) 32147176,(83) 32147963,polouabjoaopessoa@gmail.com,,WWW.JOAOPESSOA.PB.GOV.BR
1133,João Pinheiro,MG,,,JOAO PINHEIRO - CENTRO,CVT/ UAITEC JOAO PINHEIRO,Rua Frei Dionísio,93,Centro,38770000,,(38) 35615487,() ,joaopinheiro@uaitec.mg.gov.br,,
793,Joinville,SC,-26.298739,-48.844937,JOINVILLE - CENTRO,POLO UAB DE JOINVILLE,Rua Luiz Niemeyer,54,Centro,89201060,Predio do Banco do Brasil 8º andar,(47) 34452839,(47) 991070191,polouabjoinville@gmail.com,manoel.lasta@gmail.com,
115,Juara,MT,-11.2557214,-57.5108509,JUARA - CENTRO,POLO UAB - JUARA,Rua Piracicaba,105W,Centro,78575000,,(66) 35564933,() ,uabjuara@hotmail.com,valdirene_juara@hotmail.com,
813,Juazeiro,BA,-9.4185538,-40.4917079,JUAZEIRO - SAO GERALDO,POLO UAB JUAZEIRO,Rua Agostinho Muniz,1010-A,São Geraldo,48905740,,(74) 36117221,(74) 36117258,polouabjuazeiro@gmail.com,tdcastro.nte@gmail.com,
542,Juína,MT,-11.419351,-587.64318,JUINA - SETOR DE SERVICOS,POLO UAB DE JUINA,Av. dos Jambos,1901,Centro,7832000,Casa da Cultura,(66) 35661567,(66) 996817478,uabpolojuina@gmail.com,rosangelaap09@hotmail.com,
543,Juiz de Fora,MG,-21.748942,-43.350461,JUIZ DE FORA - LADEIRA,POLO UAB DE JUIZ DE FORA,Rua Maria Perpétua,72,Ladeira,36052560,,(32) 21048401,(32) 36907228,polouabjf@yahoo.com.br,sfmmarcia@yahoo.com.br,
126,Juruti,PA,,,JURUTI - MARACANA,POLO UAB - JURUTI,Rua Arnaldo Pinheiro,0,Maracanã,68170000,Anexo ao Tribódromo,(93) 991338462,(93) 35361544,herilenesantos@hotmail.com,polojuruti@yahoo.com,
888,Jussara,GO,-15.86798,-508.67081,JUSSARA - SAO FRANCISCO,POLO DE APOIO PRESENCIAL EM JUSSARA,Rua W3 esquina Almirante Barroso,0,São Francisco,76270-000,ao lado da Escola Estadual Colégio Dom Bosco,(62) 33733503,(62) 33731552,polouabjussara2013@hotmail.com,kelly.silva@seduc.go.gov.br,
14,Lábrea,AM,,,LABREA - CENTRO,POLO UAB - LABREA,Av Coronel Luiz Gomes,211,Centro,69830000,,(92) 992596234,(97) 984144742,prof.sobrinho@hotmail.com,prof.sobrinho@gmail.com,
105,Lagamar,MG,-18.182373,-46.811651,LAGAMAR - CENTRO,ENSINO A DISTANCIA DANIEL VINICIUS SANTOS MOURA - LAGAMAR - UAB,Rua Ituiutaba,44,Bela Vista,38785000,,(34) 38121247,(34) 92256437,uablagamar@cead.ufop.br,antonia.plaed@gmail.com,
545,Lagarto,SE,,,LAGARTO - COLONIA TREZE,POLO PRESENCIAL DO MUNICIPIO DE LARGATO - COLONIA TREZE,Av. Antonio Martins Menezes,0,Centro,49400-000,Povoado Colônia 13,(79) 36421657,(79) 99378534,marcosdo13@gmail.com,uabcoloniatreze@yahoo.com.br,uabcoloniatreze@yahoo.com.br
1062,Lages,SC,,,LAGES - GETHAL,POLO DE ENSINO A DISTANCIA DA UNIVERSIDADE FEDERAL DE SANTA CATARINA - UFSC DE LAGES,Rua Independencia,245,Getal,88520400,próximo ao Sesi,(49) 32235878,(49) 32235878,pololgs@hotmail.com,,
548,Lagoa Santa,MG,-19.62683,-43.87993,LAGOA SANTA - SANTOS DUMONT,POLO LAGOA SANTA/MG,Av. Coronel Modestino Gonçalves,90,Santos Dumont,33400000,,(31) 36872055,() ,glaupi@hotmail.com,uabpololagoasanta@gmail.com,
856,Laguna,SC,-28.467199,-48.782578,LAGUNA - PORTINHO,POLO UAB LAGUNA,Travessa Vereador Rui Medeiros,0,Portinho,88750-000,Predio do CAIC,(48) 36472808,() ,poloeadlaguna@gmail.com,,
551,Lajes,RN,-56.999806,-362.48875,LAJES - CENTRO,POLO DE APOIO PRESENCIAL PROFESSORA MARIA DA CONCEICAO SALVIANO CAVALCANTE,Rua Cel Joaquim teixeira,0,Centro,59535000,,(84) 35322197,(84) 35322627,cdmds@uol.com.br,,
552,Lapa,PR,-25.771071,-49.718599,LAPA - CENTRO,POLO UAB LAPA / PARANA,RUA EUFRASIO CORTES,228,CENTRO,83750000,,(41) 36220312,(41) 988226026,uab.educa@lapa.pr.gov.br,polouablapapr@yahho.com.br,
553,Laranjeiras do Sul,PR,-25.426951,-524.09793,LARANJEIRAS DO SUL - ESTRADA PARA PORTO BARREIRA,LARANJEIRAS DO SUL,Oscar Pereira Guedes,1,Vila Albert,85303820,,(42) 36353990,() ,pololaranjeiras@yahoo.com.br,,
29,Lauro de Freitas,BA,-12.84245,-38.32726,LAURO DE FREITAS - JOQUEI CLUB - PITANGA,POLO UAB - LAURO DE FREITAS,RUA DOS VEREADORES,0,JOQUEI CLUB - PITANGA,41700000,,(71) 32873319,() ,uablfreitas@gmail.com,,
554,Lavras,MG,-21.26738,-45.04190,LAVRAS - CENTRO,POLO UAB DE LAVRAS,praça Dr. Jorge,130,Centro,37200000,Escola Alvaro Botelho,(35) 38212695,() ,polouablavras@gmail.com,telsuita@gmail.com,
150,Limoeiro,PE,-7.880387,-35.439206,LIMOEIRO - JUA,POLO UAB - LIMOEIRO-PE,Rua São Vicente Férrer,55700-000,Juá,55700-000,Escola Municipal Prof. Antônio de Souza Vilaça,(81) 36280988,() ,uablimoeiro.pe@gmail.com,,
46,Limoeiro do Norte,CE,-5.143068,-38.094052,LIMOEIRO DO NORTE - SANTA LUZIA - CENTRO,POLO UAB - LIMOEIRO DO NORTE,Rua José Hamilton de Oliveira,160,Centro,62930-000,,(88) 34231519,(88) 92099272,uabpololimoeiro@gmail.com,,www.uabpololimoeiro.blogspot.com
557,Linhares,ES,-19.35774,-40.14690,LINHARES - NOVO HORIZONTE,POLO UAB DE LINHARES,Avenida Presidente Costa e Silva,155,NOvo Horizonte,29902120,,(27) 33737900,() ,uab2linhares@gmail.com,deziere.az@gmail.com,
144,Livramento,PB,-7.39479,-36.98826,LIVRAMENTO - SANTO ANTONIO,POLO UAB - LIVRAMENTO,RUA ARNALDO GUILHERME DOS SANTOS,0,SANTO ANTONIO,58690000,PRÉDIO,(83) 34771263,() ,pololivramento2014@gmail.com,celmaalves22@hotmail.com,
1186,Londrina,PR,,,LONDRINA - CONJUNTO HABITACIONAL MARIA CECÍLIA SERRANO DE OLIVEIRA,Polo UAB de Londrina,Rua Luiz Brugin,615,Conjunto Habitacional Maria Cecília Serrano de Oliveira,86085310,,(43) 33724097,(43) 33750093,edu.planejamento@londrina.pr.gov.br,,
560,Lucas do Rio Verde,MT,-13.083192,-55.9033499,LUCAS DO RIO VERDE - JARDIM PRIMAVERA,LUCAS DO RIO VERDE-MT,Rua Cedro,61,Jardim Primavera,78455000,S - Escola Municipal Vinícius de Moraes,(65) 35482327,() ,uablrv@gmail.com,uabpololucasdorioverde@gmail.com,
145,Lucena,PB,-6.938062,-34.86986,LUCENA - FAGUNDES,POLO DE APOIO PRESENCIAL DE LUCENA - UAB,Rua São José,0,Fagundes,58315000,,(83) 986738852,(83) 987055404,poluab.lucena@gmail.com,otanerrbs@gmail.com,
983,Luís Correia,PI,-2.884253,-41.662898,LUIS CORREIA - CENTRO,POLO DE LUIS CORREIA,Rua Afonso Serra,605,Centro,64220-000,CEEP - Zulmira Xavier,(86) 32163393,() ,supes.seduc@gmail.com,,
209,Luís Gomes,RN,-6.416173,-38.386395,LUIS GOMES - CENTRO,POLO UNIVERSITARIO DE LUIS GOMES,Av. Senhora Santana,17,Centro,5994000,,(84) 33822124,(84) 99278215,uablgomes@gmail.com,franklinmiguelfdes@yahoo.com.br,uabluisgomes.blogspot.com
561,Luzilândia,PI,-3.462428,-42.371755,LUZILANDIA - CENTRO,POLO DE APOIO PRESENCIAL DE LUZILANDIA,Rua João Quariguazi,409,Centro,64160-000,,(86) 33931321,() ,uapiluz@hotmail.com,uapiluz@yahoo.com.br,
186,Macaé,RJ,-22.405568,-41.844945,MACAE - IMBOACICA,POLO UAB - MACAE,"Rodovia Amaral Peixoto, Km 164",0,Imboacica,0,Prédio do CEFET - Campos Macaé,(22) 27656029,(22) 27965016,cederjmacae@yahoo.com.br,,
562,Macapá,AP,-0.041209,-51.068225,MACAPA - CENTRO,POLO UNIVERSITARIO EQUADOR,Av FAB,91,Centro,68900-073,,(96) 31312200,(96) ,uabpolo52@gmail.com,luciramoraes@bol.com.br,https://sites.google.com/site/poloequadormacapa/
808,Macaúbas,BA,,,MACAUBAS - ALTO ALEXANDRINO,POLO UAB MACAUBAS,Rua Veredinha,0,Alto do Alexandrino,46500000,Antigo Colegio Manuel Amancio,(77) 34731833,(77) 34731381,jonaldosilva@yahoo.com.br,uab.macaubas@educ.ba.gov.br,
9,Maceió,AL,-9.558094,-35.780347,MACEIO - TABULEIRO DO MARTINS,CAMPUS A. C. SIMOES - MACEIO - UAB,Av Lourival de Melo Mota,bloco 14,Tabuleiro Du Martins,57072970,Campus A. C. Simões,(82) 33222744,(82) 32141397,polomaceio@gmail.com,elielba.map@hotmail.com,
564,Magé,RJ,-22.655289,-43.040617,MAGE - CENTRO,POLO UAB - MAGE,Av. Padre Anchieta,163,Centro,259000106,Escola  Munic. Desembargador Oswaldo Portella,(21) 26334015,(21) 36304255,cederjmage@gmail.com,tucka13@gmail.com,
15,Manacapuru,AM,-32.91086,606.31657,MANACAPURU - TERRA PRETA,POLO UAB - MANACAPURU,Eduardo Ribeiro,0,Correnteza,69400072,S/N,(92) 992180174,() ,uabmpu@gmail.com,rozinalda.moreira@gmail.com,
567,Mantena,MG,-18.787207,-40.978715,MANTENA - CENTRO,POLO DE APOIO PRESENCIAL,Rua Manoel Amâncio,171,Centro,35290000,Prédio junto a CESEC- Prefeito José Romário Duque,(33) 32411837,() ,polomantena2008@yahoo.com.br,,
64,Mantenópolis,ES,-18.860681,-41.122612,MANTENOPOLIS - CENTRO,POLO MUNICIPAL DE APOIO PRESENCIAL DE MANTENOPOLIS/ES  CEME@AD -CENTRO MUNICIPAL DE EDUCACAO ABERTA E A DISTANCIA,Av. Tiradentes,0,Centro,29770000,,(27) 37582268,(27) 37581129,mpolodemantenopolis@yahoo.com.br,meripacheco@yahoo.com.br,página da rede Facebook sob Polo de Mantenópolis
568,Marabá,PA,-5.363156,-49.123178,MARABA - AMAPA,POLO UAB/MARABA,Av. Hiléia,0,Amapá,68502-100,Agrópolis do INCRA,(94) 33247388,(94) 991023679,polouabmaraba@gmail.com,limaademar@hotmail.com,
1299,Maracanaú,CE,35.2171,383.7383,MARACANAÚ - CENTRO,Polo UAB Maracanau,Rua Capitão Valdemar Lima,202,Centro,61900020,,(85) 35215654,(85) 35215652,uabpolomaracanau@gmail.com,taciax@gmail.com,
10,Maragogi,AL,-9.015252,-35.223442,MARAGOGI - CENTRO,POLO UAB - MARAGOGI,Praça Maridite Acioli,0,Centro,57955000,1° Andar do B. Brasil,(82) 32962168,() ,uabmaragogi@gmail.com,cbuarques@gmail.com,uabmaragogi.blogsport.com
570,Maranguape,CE,-3.892897,-38.688529,MARANGUAPE - GUABIRABA,CVT DE MARANGUAPE - POLO UAB DE MARANGUAPE,Rua Walter Lopes,149,Guabiraba,61940000,Escola Municipal do Estado do Rio Grande do Norte,(85) 33413355,(85) 88348587,polouabmaranguape@centec.org.br,julianacentec@hotmail.com,www.polouabmaranguape.com.br
571,Marcelino Vieira,RN,,,MARCELINO VIEIRA - CENTRO,POLO DE APOIO PRESENCIAL DE MARCELINO VIEIRA,Rua Neo Pontes,0,Centro,59970-000,,(84) 96484321,(84) 33852070,polo2017marcelinovieira@gmail.com,meire.c@hotmail.com,
572,Marcos Parente,PI,,,MARCOS PARENTE - CENTRO,POLO UAB - MARCOS PARENTE,Rua Landri Sales,0,Centro,64845-000,,() ,() ,roseniralves@hotmail.com,,
146,Mari,PB,-7.059191,-35.30937,MARI - JOSE AMERICO,POLO UAB - MARI,RUA TEREZA SALES DE PONTES,S N,JOSE AMERICO,58345000,,(83) 32872503,(83) 96605152,uabmari@hotmail.com,helio_historia@yahoo.com.br,
210,Martins,RN,-6.092576,-37.91895,MARTINS - CENTRO,POLO UAB- MARTINS/RN,Rua Desenbargador Hemtério,0,Centro,5980000,,(84) 33912363,(84) 33912245,semartins2009@gmail.com,holiveira36@gmail.com,
30,Mata de São João,BA,-12.48464,-38.17905,MATA DE SAO JOAO - CENTRO,MARIA ODÍLIA VASCONCELOS,RUA MARECHAL DEODORO,36,CENTRO,48280000,,(71) 999764796,(71) 82032804,polomatadesaojoao@outlook.com,magdascruz@gmail.com,
574,Matão,SP,-21.613767,-483.5111,MATÃO - CENTRO,POLO UAB - MATAO,Av 15 de novembro,329,Centro,15990630,,(16) 33836658,(16) 33836659,polouabmatao@matao.sp.gov.br,fregnaniramalho@ig.com.br,www.facebook.com/polouabmatao
575,Mateiros,TO,-10.545964,-46.422303,MATEIROS - CENTRO,POLO DE APOIO PRESENCIAL DA UAB DE MATEIROS,Avenida Maranhão,0,Centro,77593000,Escola Municipal Estafanio Telles Chagas,(63) 35341133,(63) 35341008,uabmateiros@tecnologia.to.gov.br,pitholomeus@hotmail.com,
1051,Matriz de Camaragibe,AL,,,MATRIZ DE CAMARAGIBE - CENTRO,MATRIZ DE CAMARAGIBE,Av. Antônio Manoel dos Santos,0,Centro,57910000,,() ,() ,profdenissilva@hotmail.com,,
16,Maués,AM,-5.06331,-58.30285,MAUES - SANTA LUZIA,POLO PRESENCIAL MUNICIPIO DE MAUES - MAUES - UAB,Rua Beira Mato,0,Santa Luzia,69190000,,(92) 991182691,(92) 991182691,doriciana.caldas@gmail.com,,
576,Mauriti,CE,-7.38806,-38.63645,MAURITI - SERRINHA,POLO DE APOIO PRESENCIAL DE MAURITI,Rua Padre Argemiro Rolim de Oliveira,0,Serrinha,63210000,anexo Centro Educacional de Mauriti,(88) 35529035,() ,uabmauriti@yahoo.com.br,,www.mauriti.ce.gov.br
47,Meruoca,CE,-3.539277,-40.454571,MERUOCA - CENTRO,POLO UAB - MERUOCA,Praça Caetano Marques,0,Centro,62130000,Próximo a Igreja Matriz,(88) 94763201,(88) 36491136,uabpolomeruoca@hotmail.com,,http://polouabmeruoca.blogspot.com
187,Miguel Pereira,RJ,-22.480728,-43.493857,MIGUEL PEREIRA - GOVERNADOR PORTELA,POLO UAB - MIGUEL PEREIRA,Rua Luiz Eugênio,61,Recreio,26900-000,,(24) 24846218,(24) 28438463,polomiguelpereira@gmail.com,,
65,Mimoso do Sul,ES,-21.073100367319302,-41.356773872235316,MIMOSO DO SUL - CHACARA DO CHAFARIZ,POLO MUNICIPAL DE APOIO PRESENCIAL - CENTRO MUNICIPAL DE EDUCACAO ABERTA E DISTANCIA - MIMOSO DO SUL - UAB,Rua Projetada,0,Chacara Chafariz,29400000,Pombal,() 35550685,() ,uab.polomimosodosul@gmail.com,,
935,Minas Novas,MG,-17.22266,-42.58061,MINAS NOVAS - SANTA RITA,POLO UAB DE APOIO PRESENCIAL DE MINAS NOVAS,Rua Três,50,Santa Rita,39650000,,(33) 37642208,(33) 37642449,pmmn@uai.com.br,adelson.apso@yahoo.com.br,
578,Mineiros,GO,-17.547197,-52.54617,MINEIROS - IORES,POLO UNIVERSITARIO DE MINEIROS - GO,Rua  Cabeceira Alta,0,Ióres,75830000,Quadra 20 Lote 08,(64) 36610021,(64) 99580926,uabmineiros@hotmail.com,,
579,Miranda,MS,-20.20887,-56.52619,MIRANDA - COAHB,PROFESSORA MAROLI VICENTE JULIO,Rua Carandá,300,Coahb,79380000,,(67) 32424392,(67) 32421006,bete-teodoro@hotmail.com,regina_moliveira@hotmail.com (secretaria),
581,Missão Velha,CE,,,MISSAO VELHA - CENTRO,CVT DE MISSAO VELHA,Rua Coronel José Dantas,0,Centro,63200000,,(88) 35422900,() ,romulovm@bol.com.br,,
127,Moju,PA,-2.58712,-49.04096,MOJU - LIDERANCA,POLO UAB - MOJU,Rua Vereador Salomão Cardoso,53,Liderança,68790000,,(91) 37561383,() ,eadpolomoju@yahoo.com.br,,
582,Monsenhor Gil,PI,"-5.563344,",-42.610104,MONSENHOR GIL - CENTRO,POLO DE MONSENHOR GIL - PI,Av. Joel Mendes,650,Centro,64450000,Polo de Apoio Presencial Antônio de Noronha Pessoa,(86) 32581188,() ,polomgil@hotmail.com,,
1053,Montanha,ES,,,MONTANHA - CENTRO,POLO UAB DE MONTANHA,Avenida Getúlio Vargas,436,Centro,29000-890,,(27) 37542179,(27) 992453935,polouab.montanha@gmail.com,secemont@hotmail.com,
1163,Monte Sião,MG,-22.424124,-465.79276,MONTE SIÃO - SÃO SIMÃO,Polo UAB Monte Sião,Av. das Fontes,771,São Simão,37580000,,(35) 34653053,(35) 991885719,coordenacaopolouabmontesiao@gmail.com,elisandrapaulasantos@gmail.com,
950,Montes Claros,MG,-16.695833,-43.843781,MONTES CLAROS - JK,POLO MUNICIPAL UAB DE MONTES CLAROS,Rua Republica do Uruguai,66,JK,39404-021,,(38) 30831172,(38) 98112512,marciatfrota@gmail.com,polomontesclaros@gmail.com,
244,Mostardas,RS,-31.099031,-509.149879,MOSTARDAS - VILA NORTE,POLO DE APOIO PRESENCIAL DE MOSTARDAS - UAB,Avenida Dr. Dinarte Silveira Martins nº 330,330,Vila Norte,96270000,Escola Municipal Dr. Dinarte Silveira Martins,(51) 36731873,(51) 996469314,uabmostardas@gmail.com,profpedroantonio@gmail.com,
223,Mucajaí,RR,,,MUCAJAI - CENTRO,POLO UAB - MUCAJAI,Rua Raimundo Germiniano de Almeida,0,Centro,69340000,,(95) 35421139,(95) 91249539,mucajai@univirr.rr.gov.br,,
31,Mundo Novo,BA,-11.8629078,-40.4709197,MUNDO NOVO - CENTRO,POLO UAB MUNDO NOVO,Rua Jose Carlos da Mota,0,Centro,44800000,,(74) 36262764,() ,polo.mundonovo@gmail.com,leydjauabmn@gmail.com,
925,Nanuque,MG,-17.839534,-40.360811,NANUQUE - ROMILDA RUAS,POLO UAB DE APOIO PRESENCIAL DE NANUQUE,R. Governador Valadares,529,Romilda Ruas,39860000,Escola Stella Matutina,(33) 36211705,() ,mirandamar29@yahoo.com.br,martinsr29@yahoo.com.br,
586,Natal,RN,-5.820381,-35.233195,NATAL - NOSSA SENHORA DE NAZARE,POLO NATAL,Av. Coronel Estevan,3705,Nossa Senhora de Nazaré,59060-200,,(84) 30928918,(84) 32323389,uabpolonatal@gmail.com,lourdes.valentim@natal.rn.gov.br,
188,Natividade,RJ,-21.042728,-41.978615,NATIVIDADE - CENTRO,POLO UAB - NATIVIDADE,Rua Vigário João Batista,3,Centro,28380000,Colégio Municipal Alvorada,(22) 38411274,(22) 38411681,colegioalvorada2010@hotmail.com,,
588,Nina Rodrigues,MA,-3.4651689,-43.90808336,NINA RODRIGUES - CENTRO,POLO TECNOLOGICO UAB2 - ANEXO RAIMUNDO DE OLIVEIRA CORREA,Travessa Interventor Coronel Siqueira,5,Centro,65450000,,(98) 34651376,() ,polouabninarodrigues@uemanet.uema.com.br,,http://www.educacaoninense.blogspot.com
1161,Niquelândia,GO,-14.473372,-484.61478,NIQUELÂNDIA - CENTRO,Polo UAB de Niquelândia,Rua Itabaiana,2,Centro,76420000,Quadra U Lt 01,(62) 33541571,(62) 96565514,polouabniquelandia@gmail.com,,
861,Niterói,RJ,-22.882905,-43.082588,NITEROI - FONSECA,POLO UAB - NITEROI,Rua Soares Miranda,77,Fonseca,24130030,5º Andar,(21) 36038340,(21) 27216678,santos.mfatima1@gmail.com,polo-niteroi@cecierj.edu.br,
589,Nossa Senhora da Glória,SE,10.2123402,374.0775707,NOSSA SENHORA DA GLORIA - SILOS,POLO UAB - NOSSA SENHORA DA GLORIA,"Rodovia Engenheiro Jorge Neto, km 3",0,Silos,49680000,,(79) 34111421,(79) 34111425,maisahdantas@yahoo.com.br,,
590,Nossa Senhora das Dores,SE,10.4932108,371.931891,NOSSA SENHORA DAS DORES - CENTRO,POLO PRESENCIAL PROFESSORA LUCIA SANTANA OLIVEIRA,Praça Cônego Miguel Monteiro Barbosa,134,Praça da Matriz,49600000,,(79) 32651322,() ,uabpolodores@gmail.com,,
189,Nova Friburgo,RJ,-22.307287,-42.543081,NOVA FRIBURGO - OLARIA,POLO UAB - NOVA FRIBURGO,Av. José Pires Barroso,0,Olaria,28620075,CIEP 124 Licínio Teixera,(22) 25192437,(22) 25192043,polo-novafriburgo@cecierj.edu.br,,
593,Nova Iguaçu,RJ,-22.760694,-43.450904,NOVA IGUACU - CENTRO,POLO UAB - NOVA IGUACU,Rua Doutor Paulo Froes Machado,38,Centro,26255-170,,(21) 26694811,() ,polo-novaiguacu@cederj.rj.gov.br,cbittencourt@cederj.rj.gov.br,
174,Nova Londrina,PR,-22.763202,-52.989508,NOVA LONDRINA - CENTRO,POLO UAB _ POLO MUNICIPAL DE APOIO PRESENCIAL DE NOVA LONDRINA EM EAD - UAB,Praça da Matriz,238,Centro,87970000,Escola Municipal Isolde Julieta Andreatta,(44) 34321351,(44) 34321179,educanl@yahoo.com.br,sec-polouabnl@hotmail.com,
594,Nova Mamoré,RO,-10.417272,-65.335557,NOVA MAMORE - CIDADE NOVA,POLO UAB DO MUNICIPIO DE NOVA MAMORE,Rua Raimundo Fernandes,2888,Cidade Nova,76857000,,(69) 35442776,() ,polouabnovamamore@gmail.com,uab@novamamore.ro.gov.br,
289,Nova Olinda,TO,-7.6372,-48.425043,NOVA OLINDA - CENTRO,POLO DE APOIO PRESENCIAL,Avenida Bernado Sayão - Quadra 162,22636,Centro,77790000,Margens da BR 153,(63) 92359840,() ,polo_uabnova@hotmail.com,Kelcydiassiqueira@hotmail.com,
595,Nova Santa Rosa,PR,-24.470586,-539.507408,NOVA SANTA ROSA - CENTRO,POLO DE NOVA SANTA ROSA,Avenida Tucunduva,1033,Centro,85930000,Escola Municipal Getúlio Vargas,(45) 32531646,() ,ani_kamien@hotmail.com,,
1155,Nova Serrana,MG,,,NOVA SERRANA - JARDINS DO LAGO,CVT/UAITEC NOVA SERRANA,Av. Dom Cabral,373,Jardins do Lago,35519000,Número 373 ou 375,(37) 32265049,() ,novaserrana@uaitec.mg.gov.br,,
175,Nova Tebas,PR,,,NOVA TEBAS - CENTRO,POLO UAB EM NOVA TEBAS,Rua Alexandre Magno,783,centro,85250000,,(42) 36431101,() ,cas.turina@hotmail.com,,
596,Nova Venécia,ES,,,NOVA VENECIA - RUBIA,"POLO MUNICIPAL DE APOIO PRESENCIAL DA UNIVERSIDADE ABERTA DO BRASIL  E CENTRO DE FORMACAO DE PROFESSORES DE NOVA VENECIA - ES ""PE CARLOS FURBETTA""",Rua 07 de Setembro,420,Rúbia,29830-000,,(27) 37529028,(27) 999531827,nveneciauab@gmail.com,romulodelboni@hotmail.com,
598,Nova Xavantina,MT,-14.681933,-52.346915,NOVA XAVANTINA - JARDIM ALVORADA,POLO EDUCACIONAL DE APOIO PRESENCIAL UAB NOVA XAVANTINA,Rua Oscar Niemayer,185,Jardim Alvorada,78690000,,(66) 34382115,() ,polouabnx@hotmail.com,polouabnx@yahoo.com.br,
599,Novo Hamburgo,RS,-29.689404,-51.129296,NOVO HAMBURGO - CENTRO,POLO DA UNIVERSIDADE ABERTA EM NOVO HAMBURGO,AV. PEDRO ADAMS FILHO,4918,CENTRO,93320-006,,(51) 35949901,(51) 35949947,gabineteprefeito@novohamburgo.rs.gov.br,monicapagel@yahoo.com.br,http://polouabnh.weebly.com
600,Oeiras,PI,-7.01502,-42.128897,OEIRAS - CENTRO,POLO DE APOIO PRESENCIAL PROFESSOR POSSIDÔNIO QUEIRO,Av. Desembargador Candido Martins,67,Centro,64500-000,,(89) 34624396,() ,neiderosangela@yahoo.com.br,neiderosangela@yahoo.com.br,
821,Oiapoque,AP,,,OIAPOQUE - CENTRO,POLO INTERCAMBIO DA UNIVERSIDADE ABERTA DO BRASIL,Rua Lélio Silva,719,Centro,689800000,Escola Estadual Joaquim Nambuco,(96) 35211131,() ,nataliaribeiro29@yahoo.com.br,,
11,Olho d´Água das Flores,AL,-9.530744,-37.29234,OLHO D'AGUA DAS FLORES - CENTRO,POLO DE APOIO PRESENCIAL UAB DE OLHO D'AGUA DAS FLORES,Rua Seis de Fevereiro,0,Nova Brasilia,57442-000,Anexo a Escola Muni. Educ. Basica Maria Augusta Silva Melo,(82) 36231378,() ,polouab.oaflores@gmail.com,joserubensap.oaflores@gmail.com,
602,Orós,CE,-6.25502,-38.96761,OROS - CENTRO,POLO UAB PE. DJALVO BEZERRA DE ALENCAR,Travessa Dr. Rosevaldo,0,Centro,63520000,Vizinho ao Dançódromo Beira Rio,(88) 35841461,(88) 996687444,polodjalvo2015@gmail.com,flavio_oros_ufc@hotmail.com,
283,Osasco,SP,-23.531791,-46.781208,OSASCO - CENTRO,POLO UAB - CHIQUINHA GONZAGA - OSASCO,Rua Marechal Rondon,263,Centro,6093020,Centro Municipal de Formação Continuada de Professores,(11) 21830949,(11) 21830920,uabosasco.valmir@gmail.com,uabosasco.secretaria@gmail.com,UAB-I
604,Otacílio Costa,SC,,,OTACILIO COSTA - FATIMA,POLO DE APOIO PRESENCIAL UAB OTACILIO COSTA,"Rua Pedro Álvares Cabral, 103",103,Fáima,88540000,,(49) 32752759,() ,edu.uab@otaciliocosta.sc.gov.br,anapaula_sun@yahoo.com.br,
907,Ouricuri,PE,-7.890122,-40.081066,OURICURI - ZONA URBANA,POLO DE APOIO PRESENCIAL EAD - OURICURI-PE,Estrada vicinal do açude tamboril,0,estrada vicinal,56200000,Núcleo de Ensino Superior deputado Felipe Coelho,(87) 38744874,(87) 38743840,polouabouricuri@gmail.com,,IFPE
225,Pacaraima,RR,-44.74575,-611.4,PACARAIMA - SUAPI,POLO UAB - PACARAIMA/RR,Rua Julia Moreira de Albuquerque,S/N,Centro,69345000,Prédio,(95) 35921929,(95) 991116078,polo_pacaraima@univirr.rr.gov.br,docarmocesar@hotmail.com,
926,Padre Paraíso,MG,-17.077074,-41.482857,PADRE PARAISO - CORONEL OLINTO VIEIRA,POLO UAB DE APOIO PRESENCIAL DE PADRE PARAISO,Rua do Clube,0,Coronel Olinto Vieira,39818-000,,(33) 35341112,() ,towikkrull@yahoo.com.br,polo.padreparaiso@ead.ufvjm.edu.br,
984,Paes Landim,PI,,,PAES LANDIM - CENTRO,POLO DE PAES LANDIM,Rua 13 de Maio,0,Centro,64710-000,,(86) 32163393,() ,supes.seduc@gmail.com,,
607,Palhoça,SC,-27.636005,-48.653632,PALHOCA - PONTE DO IMARUIM,Polo UAB/Palhoça,RUA JOÃO PEREIRA DOS SANTOS,305,PONTE DO IMARUIM,88130475,,(48) 33412677,(48) 999261679,polouabpalhoca.sc@gmail.com,luzdutrabarbosa@gmail.com,
880,Palmares,PE,-8.679203,-35.582195,PALMARES - CENTRO,NUCLEO DE TECNOLOGIA EDUCACIONAL DE PALMARES,Av. Jose Americo de Miranda,S?N,Santa Rosa,55540000,,() ,(90) 36618175,zeliaporto2@yahoo.com.br,regional.ms@educacao.pe.gov.br,
290,Palmas,TO,-10.177854,-48.314803,PALMAS - PLANO DIRETOR NORTE,POLO DE EAD EM PALMAS,"Quadra 206 norte, Av. LO 4",4,Plano Diretor norte,77006244,,(63) 32186154,() ,uabpalmas@tecnologia.to.gov.br,marilhasm@tecnologia.to.gov.br,
610,Palmeira,PR,-25.416925,-500.00319,PALMEIRA - CENTRO,POLO DA UAB DE PALMEIRA,Rua Coronel Pedro Ferreira,223,Centro,84130000,,(42) 39095048,() ,palmeira@nutead.org.br,Palmeira_uab@hotmail.com,
611,Palmital,PR,-24.8870452,-52.1991989,PALMITAL - VILA PARQUE JUNIOR,POLO DE APOIO PRESENCIAL/UAB DE PALMITAL,R. Parigot de Souza,0,Vila Parque Junior,85270000,Escola Municipal K. Costa,(42) 36571989,(42) 36571644,polouab_ptal@hotmail.com,,
612,Palmitos,SC,-27.066315,-53.170843,PALMITOS - CENTRO,POLO DE APOIO PRESENCIAL UAB- PALMITOS,Rua Luiz Alba,149,Centro,89887-000,Prédio da UDESC,(49) 36473378,(49) 36479600,uab@palmitos.sc.gov.br,bugs_marlise@yahoo.com.br,
613,Panambi,RS,-28.287806,-53.502206,PANAMBI - CENTRO,POLO PRESENCIAL UNIVERSIDADE ABERTA DO BRASIL,Rua Hermann Mayer,43,Centro,98280000,,(55) 33754718,() ,polouabpanambi@gmail.com,,www.uabpanambi.com.br
190,Paracambi,RJ,-22.599531,-43.705942,PARACAMBI - FABRICA,POLO UAB - PARACAMBI,Rua Sebastião de Lacerda,0,Fábrica - Paracambi - RJ,26600000,Polo CEDERJ - UAB Paracambi,(21) 36933299,(21) 36933299,polo-paracambi@cecierj.edu.br,,
1135,Paracatu,MG,,,PARACATU - CENTRO,CVT/UAITEC – PARACATU,Avenida Aeroporto,255,Paracatuzinho,38600000,,(38) 36790905,() ,paracatu@uaitec.mg.gov.br,,
614,Paragominas,PA,-2.976237,-47.364368,PARAGOMINAS - JK,POLO DE PARAGOMINAS,Rua Cassimiro de Abreu,24,Jucelino Kubicheck,68625-970,,(91) 37298044,(91) 37298021,uabparagominas@gmail.com,uabparagominaspa@yahoo.com.br,
1164,Paraisópolis,MG,-22.556279,-457.75987,PARAISÓPOLIS - JARDIM AEROPORTO,Polo UAB de Paraisópolis,Rua Cimbica,37,Jardim Aeroporto,37660000,,(35) 36511603,(35) 984058332,polouabparaisopolis@gmail.com,educacao@paraisopolis.mg.gov.br,
176,Paranaguá,PR,-25.546788,-48.537169,PARANAGUÁ - JARDIM GUARAITUBA,POLO UAB -  POLO DE APOIO PRESENCIAL AO ENSINO SUPERIOR A DISTANCIA DE PARANAGUA,Rua Capiberibe,0,Jardim Guaraituba,83209330,Escola Municipal Nascimento Junior,(41) 34206033,(41) 988571623,uabpoloparanagua@hotmail.com,dudao_xn@hotmail.com,
177,Paranavaí,PR,-23.078676,-52.437782,PARANAVAI - JARDIM SANTOS DUMOND,POLO UAB  DE PARANAVAI,RUA BARÃO DO CERRO AZUL,210,JARDIM SANTOS DUMOND,87706-030,,(44) 39021207,() ,uab@paranavai.pr.go.br,,www.paranavai.pr.gov.br/uab
32,Paratinga,BA,-12.686674,-43.171871,PARATINGA - SAO JOAO,POLO DA APOIO PRESENCIAL - PARATINGA - UAB,Rua São João,0,São João,47500-000,Próximo a BR,(77) 36642279,(77) 36642068,polouabparatinga@hotmail.com,aritanamartins2@hotmail.com,
129,Parauapebas,PA,-6.0640237,-49.9069356,PARAUAPEBAS - CIDADE NOVA,POLO PARAUAPEBAS - UAB,Rua A,0,Cidade Nova,68515-000,,(94) 33468191,() ,uab_parauapebas@hotmail.com,,
617,Parnamirim,RN,-5.924048,-35.265502,PARNAMIRIM - COHABINAL,PARNAMIRIM,Rua Castor Vieira Régis,424,COHABINAL,59140-670,,(84) 36448325,(84) 36432432,gildecyparnamirim.souza@yahoo.com.br,raimunda.basilio@parnamirim.rn.gov.br,
919,Passos,MG,-20.724888,-466.08903,PASSOS - BELO HORIZONTE,ESCOLA MUNICIPAL PROFESSSORA AMELIA JABACE,Rua Santo Anibal,181,Belo Horizonte,37900038,,(35) 35227027,(35) 35885484,secel@passos.mg.gov.br,uab@passos.mg.gov.br,
178,Pato Branco,PR,-26.17021,-52.66343,PATO BRANCO - SAIDA PARA BOM SUCESSO DO SUL,POLO REGIONAL DE ENSINO SUPERIOR DE PATO BRANCO - UAB,Via do Conhecimento - PRT469 Km 01,0,Saida para Bom Sucesso do Sul,85503390,Em frente UTFPR - Caixa Postal 133,(46) 39021321,() ,admuab@hotmail.com,caciawebber@gmail.com,
619,Patos de Minas,MG,-18.579859,-465.25168,PATOS DE MINAS - CENTRO,POLO UAB PATOS DE MINAS,Rua São Geraldo,0,Lagoinha,38701324,Escola Municipal Prefeito Jacques Corrêa da Costa,(34) 38229662,(34) 38229661,polouab@patosdeminas.mg.gov.br,arilsonelucia15@gmail.com,
621,Paulo Afonso,BA,-9.387472,-38.232736,PAULO AFONSO - PANORAMA,POLO UAB - PAULO AFONSO,Av. Antônio Carlos Magalhães,11,Panorama,48600-000,,(75) 32819971,(75) 32819972,polouabpauloafonso@gmail.com,edjqueiroz@hotmail.com,
623,Pedra Azul,MG,-15.996934,-41.280126,PEDRA AZUL - CENTRO,POLO UAB - DR. GILBERTO ANTUNES DE ALMEIDA,Avenida Dr Anthero de Lucena Ruas,525,Centro,39970000,,(33) 37513339,(33) 37511058,uabpa09@gmail.com,leletecb@hotmail.com,
1358,Pedra Branca,CE,-54.567437,-397.275924,PEDRA BRANCA - BOM PRINCÍPIO,Polo UAB Pedra Branca,Avenida Sabino Vieira Cavalcante,320,Santa Ùrsula,63630000,,(88) 35152441,(88) 998266874,polouabpedrabranca@gmail.com,ivoneth-braga@hotmail.com,
624,Pedra Preta,MT,,,PEDRA PRETA - CENTRO,POLO DE APOIO PRESENCIAL PARA O SISTEMA UNIVERSIDADE ABERTA-UAB DE PEDRA PRETA,Avenida Frei Servácio,68,Centro,78795-000,União de Cursos de Pedra Preta - UNIPEDRA,(66) 34862197,() ,danielleloana@hotmail.com,polouab.pedrapreta@outlook.com,
833,Pedro Afonso,TO,,,PEDRO AFONSO - SETOR BELA VISTA 1,POLO DE EDUCACAO A DISTANCIA DE PEDRO AFONSO,Rua 6,0,Bela Vista,77710000,Escola Municipal Sousa Aguiar,(63) 84734483,(63) 84545396,marinbsl@hotmail.com,pa.robson@hotmail.com,
627,Peruíbe,SP,-24.28854,-470.2561,PERUIBE - BALNEARIO STELLA MARIS,UAB POLO PERUIBE,Av. São João,635,Centro,11750000,"sala 2 Lote S/N, quadra 60",(13) 34558389,(13) 997126102,marizete.stos@gmail.com,,
152,Pesqueira,PE,-8.355257,-36.6948853,PESQUEIRA - CENTRO,POLO  UAB MONSENHOR FAUSTO DE SOUZA FERRAZ,Av. Ésio Araújo,17,Centro,55200-000,,(87) 38358771,() ,uabpolopesqueira@yahoo.com.br,polopesqueira@gmail.com,
