{
   "type":"FeatureCollection",
   "features":[
      {
         "type":"Feature",
         "geometry":{
            "type":"Point",
            "coordinates":[
               -37.767894,
               -4.558259
            ]
         },
         "properties":{
            "ipes":"UFC",
            "cidade":"Aracati",
            "estado":"Ceará"
         }
      },
      {
         "type":"Feature",
         "geometry":{
            "type":"Point",
            "coordinates":[
               -38.812512,
               -4.36872
            ]
         },
         "properties":{
            "ipes":"UFC",
            "cidade":"Aracoiaba",
            "estado":"Ceará"
         }
      },
      {
         "type":"Feature",
         "geometry":{
            "type":"Point",
            "coordinates":[
               -39.2972442,
               -7.3069397
            ]
         },
         "properties":{
            "ipes":"UFC",
            "cidade":"Barbalha",
            "estado":"Ceará"
         }
      },
      {
         "type":"Feature",
         "geometry":{
            "type":"Point",
            "coordinates":[
               -38.1298101,
               -4.1810469
            ]
         },
         "properties":{
            "ipes":"UFC",
            "cidade":"Beberibe",
            "estado":"Ceará"
         }
      },
      {
         "type":"Feature",
         "geometry":{
            "type":"Point",
            "coordinates":[
               -38.9859152,
               -7.4909841
            ]
         },
         "properties":{
            "ipes":"UFC",
            "cidade":"Brejo Santo",
            "estado":"Ceará"
         }
      },
      {
         "type":"Feature",
         "geometry":{
            "type":"Point",
            "coordinates":[
               -40.854362,
               -2.900499
            ]
         },
         "properties":{
            "ipes":"UFC",
            "cidade":"Camocim",
            "estado":"Ceará"
         }
      },
      {
         "type":"Feature",
         "geometry":{
            "type":"Point",
            "coordinates":[
               -40.3740367,
               -7.0742675
            ]
         },
         "properties":{
            "ipes":"UFC",
            "cidade":"Campos Sales",
            "estado":"Ceará"
         }
      },
      {
         "type":"Feature",
         "geometry":{
            "type":"Point",
            "coordinates":[
               -38.6593082,
               -3.7300563
            ]
         },
         "properties":{
            "ipes":"UFC",
            "cidade":"Caucaia",
            "estado":"Ceará"
         }
      },
      {
         "type":"Feature",
         "geometry":{
            "type":"Point",
            "coordinates":[
               -38.5217989,
               -3.7304512
            ]
         },
         "properties":{
            "ipes":"UFC",
            "cidade":"Fortaleza",
            "estado":"Ceará"
         }
      },
      {
         "type":"Feature",
         "geometry":{
            "type":"Point",
            "coordinates":[
               -40.7168461,
               -4.5427141
            ]
         },
         "properties":{
            "ipes":"UFC",
            "cidade":"Ipueiras",
            "estado":"Ceará"
         }
      },
      {
         "type":"Feature",
         "geometry":{
            "type":"Point",
            "coordinates":[
               -39.583571,
               -3.499329
            ]
         },
         "properties":{
            "ipes":"UFC",
            "cidade":"Itapipoca",
            "estado":"Ceará"
         }
      },
      {
         "type":"Feature",
         "geometry":{
            "type":"Point",
            "coordinates":[
               -38.6195166,
               -5.8847888
            ]
         },
         "properties":{
            "ipes":"UFC",
            "cidade":"Jaguaribe",
            "estado":"Ceará"
         }
      },
      {
         "type":"Feature",
         "geometry":{
            "type":"Point",
            "coordinates":[
               -39.3176389,
               -7.2170037
            ]
         },
         "properties":{
            "ipes":"UFC",
            "cidade":"Juazeiro do Norte",
            "estado":"Ceará"
         }
      },
      {
         "type":"Feature",
         "geometry":{
            "type":"Point",
            "coordinates":[
               -38.6796355,
               -3.8936285
            ]
         },
         "properties":{
            "ipes":"UFC",
            "cidade":"Maranguape",
            "estado":"Ceará"
         }
      },
      {
         "type":"Feature",
         "geometry":{
            "type":"Point",
            "coordinates":[
               -40.453106,
               -3.539741
            ]
         },
         "properties":{
            "ipes":"UFC",
            "cidade":"Meruoca",
            "estado":"Ceará"
         }
      },
      {
         "type":"Feature",
         "geometry":{
            "type":"Point",
            "coordinates":[
               -39.1434843,
               -7.248491
            ]
         },
         "properties":{
            "ipes":"UFC",
            "cidade":"Missão Velha",
            "estado":"Ceará"
         }
      },
      {
         "type":"Feature",
         "geometry":{
            "type":"Point",
            "coordinates":[
               -38.9150566,
               -6.2458097
            ]
         },
         "properties":{
            "ipes":"UFC",
            "cidade":"Orós",
            "estado":"Ceará"
         }
      },
      {
         "type":"Feature",
         "geometry":{
            "type":"Point",
            "coordinates":[
               -39.417017,
               -5.800251
            ]
         },
         "properties":{
            "ipes":"UFC",
            "cidade":"Piquet Carneiro",
            "estado":"Ceará"
         }
      },
      {
         "type":"Feature",
         "geometry":{
            "type":"Point",
            "coordinates":[
               -40.7021204,
               -5.8458224
            ]
         },
         "properties":{
            "ipes":"UFC",
            "cidade":"Quiterianópolis",
            "estado":"Ceará"
         }
      },
      {
         "type":"Feature",
         "geometry":{
            "type":"Point",
            "coordinates":[
               -39.0147258,
               -4.9673963
            ]
         },
         "properties":{
            "ipes":"UFC",
            "cidade":"Quixadá",
            "estado":"Ceará"
         }
      },
      {
         "type":"Feature",
         "geometry":{
            "type":"Point",
            "coordinates":[
               -39.288947,
               -5.190672
            ]
         },
         "properties":{
            "ipes":"UFC",
            "cidade":"Quixeramobim",
            "estado":"Ceará"
         }
      },
      {
         "type":"Feature",
         "geometry":{
            "type":"Point",
            "coordinates":[
               -37.972086,
               -4.926727
            ]
         },
         "properties":{
            "ipes":"UFC",
            "cidade":"Russas",
            "estado":"Ceará"
         }
      },
      {
         "type":"Feature",
         "geometry":{
            "type":"Point",
            "coordinates":[
               -38.9738565,
               -3.604995
            ]
         },
         "properties":{
            "ipes":"UFC",
            "cidade":"São Gonçalo do Amarante",
            "estado":"Ceará"
         }
      },
      {
         "type":"Feature",
         "geometry":{
            "type":"Point",
            "coordinates":[
               -40.3456372,
               -3.6879135
            ]
         },
         "properties":{
            "ipes":"UFC",
            "cidade":"Sobral",
            "estado":"Ceará"
         }
      },
      {
         "type":"Feature",
         "geometry":{
            "type":"Point",
            "coordinates":[
               -40.292695,
               -5.996343
            ]
         },
         "properties":{
            "ipes":"UFC",
            "cidade":"Tauá",
            "estado":"Ceará"
         }
      },
      {
         "type":"Feature",
         "geometry":{
            "type":"Point",
            "coordinates":[
               -40.920437,
               -3.854479
            ]
         },
         "properties":{
            "ipes":"UFC",
            "cidade":"Ubajara",
            "estado":"Ceará"
         }
      }
   ]
}
