{
   "type":"FeatureCollection",
   "features":[
      {
         "type":"Feature",
         "geometry":{
            "type":"Point",
            "coordinates":[
               -52.209961,
               -3.204065
            ]
         },
         "properties":{
            "ipes":"UFPA",
            "cidade":"Altamira",
            "estado":"Pará"
         }
      },
      {
         "type":"Feature",
         "geometry":{
            "type":"Point",
            "coordinates":[
               -48.6190679,
               -1.5107945
            ]
         },
         "properties":{
            "ipes":"UFPA",
            "cidade":"Barcarena",
            "estado":"Pará"
         }
      },
      {
         "type":"Feature",
         "geometry":{
            "type":"Point",
            "coordinates":[
               -48.4682453,
               -1.45056
            ]
         },
         "properties":{
            "ipes":"UFPA",
            "cidade":"Belém",
            "estado":"Pará"
         }
      },
      {
         "type":"Feature",
         "geometry":{
            "type":"Point",
            "coordinates":[
               -48.252235,
               -1.3555577
            ]
         },
         "properties":{
            "ipes":"UFPA",
            "cidade":"Benevides",
            "estado":"Pará"
         }
      },
      {
         "type":"Feature",
         "geometry":{
            "type":"Point",
            "coordinates":[
               -46.7635406,
               -1.0573967
            ]
         },
         "properties":{
            "ipes":"UFPA",
            "cidade":"Bragança",
            "estado":"Pará"
         }
      },
      {
         "type":"Feature",
         "geometry":{
            "type":"Point",
            "coordinates":[
               -50.479085,
               -1.68036
            ]
         },
         "properties":{
            "ipes":"UFPA",
            "cidade":"Breves",
            "estado":"Pará"
         }
      },
      {
         "type":"Feature",
         "geometry":{
            "type":"Point",
            "coordinates":[
               -48.0410699,
               -1.5169239
            ]
         },
         "properties":{
            "ipes":"UFPA",
            "cidade":"Bujaru",
            "estado":"Pará"
         }
      },
      {
         "type":"Feature",
         "geometry":{
            "type":"Point",
            "coordinates":[
               -48.9566157,
               -1.010946
            ]
         },
         "properties":{
            "ipes":"UFPA",
            "cidade":"Cachoeira do Arari",
            "estado":"Pará"
         }
      },
      {
         "type":"Feature",
         "geometry":{
            "type":"Point",
            "coordinates":[
               -49.497885,
               -2.242949
            ]
         },
         "properties":{
            "ipes":"UFPA",
            "cidade":"Cametá",
            "estado":"Pará"
         }
      },
      {
         "type":"Feature",
         "geometry":{
            "type":"Point",
            "coordinates":[
               -47.1808299,
               -1.1958338
            ]
         },
         "properties":{
            "ipes":"UFPA",
            "cidade":"Capanema",
            "estado":"Pará"
         }
      },
      {
         "type":"Feature",
         "geometry":{
            "type":"Point",
            "coordinates":[
               -47.5559083,
               -4.2928111
            ]
         },
         "properties":{
            "ipes":"UFPA",
            "cidade":"Dom Eliseu",
            "estado":"Pará"
         }
      },
      {
         "type":"Feature",
         "geometry":{
            "type":"Point",
            "coordinates":[
               -49.0977992,
               -3.8380998
            ]
         },
         "properties":{
            "ipes":"UFPA",
            "cidade":"Goianésia do ",
            "estado":"Pará"
         }
      },
      {
         "type":"Feature",
         "geometry":{
            "type":"Point",
            "coordinates":[
               -48.957453,
               -1.975326
            ]
         },
         "properties":{
            "ipes":"UFPA",
            "cidade":"Igarapé-Miri",
            "estado":"Pará"
         }
      },
      {
         "type":"Feature",
         "geometry":{
            "type":"Point",
            "coordinates":[
               -55.9878139,
               -4.2625218
            ]
         },
         "properties":{
            "ipes":"UFPA",
            "cidade":"Itaituba",
            "estado":"Pará"
         }
      },
      {
         "type":"Feature",
         "geometry":{
            "type":"Point",
            "coordinates":[
               -56.0900977,
               -2.1571381
            ]
         },
         "properties":{
            "ipes":"UFPA",
            "cidade":"Juruti",
            "estado":"Pará"
         }
      },
      {
         "type":"Feature",
         "geometry":{
            "type":"Point",
            "coordinates":[
               -49.1000043,
               -5.3463951
            ]
         },
         "properties":{
            "ipes":"UFPA",
            "cidade":"Marabá",
            "estado":"Pará"
         }
      },
      {
         "type":"Feature",
         "geometry":{
            "type":"Point",
            "coordinates":[
               -48.766765,
               -1.889926
            ]
         },
         "properties":{
            "ipes":"UFPA",
            "cidade":"Moju",
            "estado":"Pará"
         }
      },
      {
         "type":"Feature",
         "geometry":{
            "type":"Point",
            "coordinates":[
               -55.8683381,
               -1.7674272
            ]
         },
         "properties":{
            "ipes":"UFPA",
            "cidade":"Oriximiná",
            "estado":"Pará"
         }
      },
      {
         "type":"Feature",
         "geometry":{
            "type":"Point",
            "coordinates":[
               -50.6399248,
               -3.8354195
            ]
         },
         "properties":{
            "ipes":"UFPA",
            "cidade":"Pacajá",
            "estado":"Pará"
         }
      },
      {
         "type":"Feature",
         "geometry":{
            "type":"Point",
            "coordinates":[
               -47.3548942,
               -2.99564
            ]
         },
         "properties":{
            "ipes":"UFPA",
            "cidade":"Paragominas",
            "estado":"Pará"
         }
      },
      {
         "type":"Feature",
         "geometry":{
            "type":"Point",
            "coordinates":[
               -49.8903283,
               -6.0696846
            ]
         },
         "properties":{
            "ipes":"UFPA",
            "cidade":"Parauapebas",
            "estado":"Pará"
         }
      },
      {
         "type":"Feature",
         "geometry":{
            "type":"Point",
            "coordinates":[
               -48.866073,
               -1.395873
            ]
         },
         "properties":{
            "ipes":"UFPA",
            "cidade":"Ponta de Pedras",
            "estado":"Pará"
         }
      },
      {
         "type":"Feature",
         "geometry":{
            "type":"Point",
            "coordinates":[
               -50.031687,
               -8.025294
            ]
         },
         "properties":{
            "ipes":"UFPA",
            "cidade":"Redenção",
            "estado":"Pará"
         }
      },
      {
         "type":"Feature",
         "geometry":{
            "type":"Point",
            "coordinates":[
               -47.739201,
               -2.048982
            ]
         },
         "properties":{
            "ipes":"UFPA",
            "cidade":"Santana",
            "estado":"Pará"
         }
      },
      {
         "type":"Feature",
         "geometry":{
            "type":"Point",
            "coordinates":[
               -54.699611,
               -2.438489
            ]
         },
         "properties":{
            "ipes":"UFPA",
            "cidade":"Santarém",
            "estado":"Pará"
         }
      },
      {
         "type":"Feature",
         "geometry":{
            "type":"Point",
            "coordinates":[
               -48.9523366,
               -2.936096
            ]
         },
         "properties":{
            "ipes":"UFPA",
            "cidade":"Tailândia",
            "estado":"Pará"
         }
      },
      {
         "type":"Feature",
         "geometry":{
            "type":"Point",
            "coordinates":[
               -51.1507941,
               -6.7517239
            ]
         },
         "properties":{
            "ipes":"UFPA",
            "cidade":"Tucumã",
            "estado":"Pará"
         }
      }
   ]
}
