{"features": {"0": {"type": "Feature", "properties": {"": "4", "id": "2572", "sigla": "IFAC", "nome": "INSTITUTO FEDERAL DE EDUCA\u00c7\u00c3O, CI\u00caNCIA E TECNOLOGIA DO ACRE", "logradouro": "Rua Coronel Jos\u00e9 Galdino", "bairro": "Bosque", "complemento": "", "cidade": "Rio Branco", "estado": "AC", "cep": "69900640", "telefone": "", "url": "http://www.ifac.edu.br", "tipo": "ipes"}, "geometry": {"type": "Point", "coordinates": [-67.81, -9.975]}}, "1": {"type": "Feature", "properties": {"": "7", "id": "2575", "sigla": "IFAP", "nome": "INSTITUTO FEDERAL DE EDUCA\u00c7\u00c3O, CI\u00caNCIA E TECNOLOGIA DO AMAP\u00c1", "logradouro": "RODOVIA BR 210, KM 03", "bairro": "BRASIL NOVO", "complemento": "EDIF", "cidade": "Macap\u00e1", "estado": "AP", "cep": "68909398", "telefone": "", "url": "www.ifap.edu.br", "tipo": "ipes"}, "geometry": {"type": "Point", "coordinates": [-51.066, 0.039]}}, "2": {"type": "Feature", "properties": {"": "8", "id": "2459", "sigla": "IFB", "nome": "INSTITUTO FEDERAL DE EDUCA\u00c7\u00c3O, CI\u00caNCIA E TECNOLOGIA DE BRAS\u00cdLIA", "logradouro": "SGAN 610 M\u00d3DULOS D, E, F e G", "bairro": "ASA NORTE", "complemento": "", "cidade": "Bras\u00edlia", "estado": "DF", "cep": "70860100", "telefone": "", "url": "http://www.ifb.edu.br/", "tipo": "ipes"}, "geometry": {"type": "Point", "coordinates": [-47.93, -15.78]}}, "3": {"type": "Feature", "properties": {"": "12", "id": "4665", "sigla": "IFF", "nome": "INSTITUTO FED. DE EDUCA\u00c7\u00c3O, CI\u00caNCIA E TECNOLOGIA FLUMINENSE", "logradouro": "RUA DR. SIQUEIRA", "bairro": "PARQ.D.BOSCO", "complemento": "Com aulas no Campus Campos Centro e no Polo de Inova\u00e7\u00e3o Campos dos Goytacazes", "cidade": "Campos dos Goytacazes", "estado": "RJ", "cep": "28030130", "telefone": "", "url": "http://www.iff.edu.br", "tipo": "ipes"}, "geometry": {"type": "Point", "coordinates": [-41.3235, -21.737]}}, "4": {"type": "Feature", "properties": {"": "14", "id": "5193", "sigla": "IFFarroup", "nome": "INSTITUTO FED. DE EDUC, CI\u00caNC E TECNOLOGIA FARROUPILHA", "logradouro": "RUA ESMERALDA", "bairro": "Camobi", "complemento": "EDIF", "cidade": "Santa Maria", "estado": "RS", "cep": "97110000", "telefone": "", "url": "www.iffarroupilha.edu.br/", "tipo": "ipes"}, "geometry": {"type": "Point", "coordinates": [-53.807, -29.684]}}, "5": {"type": "Feature", "properties": {"": "15", "id": "5204", "sigla": "IFG", "nome": "INSTIT FEDERAL DE EDUCAC\u00c3O, CI\u00caNCIA E TECNOLOGIA DE GOI\u00c1S", "logradouro": "Rua Assis Chateaubriand, n\u00ba 1658", "bairro": "Setor Oeste", "complemento": "", "cidade": "Goi\u00e2nia", "estado": "GO", "cep": "74130012", "telefone": "", "url": "", "tipo": "ipes"}, "geometry": {"type": "Point", "coordinates": [-49.25993, -16.64019]}}, "6": {"type": "Feature", "properties": {"": "16", "id": "5203", "sigla": "IFGoiano", "nome": "INSTITUTO FEDERAL DE EDUCA\u00c7\u00c3O, CI\u00caNCIA E TECNOLOGIA GOIANO", "logradouro": "Rua 88, n\u00b0310", "bairro": "Setor Sul", "complemento": "", "cidade": "Goi\u00e2nia", "estado": "GO", "cep": "74085010", "telefone": "", "url": "www.ifgoiano.edu.br", "tipo": "ipes"}, "geometry": {"type": "Point", "coordinates": [-49.254, -16.679]}}, "7": {"type": "Feature", "properties": {"": "18", "id": "5198", "sigla": "IFMG", "nome": "INSTITUTO FEDERAL DE EDUCA\u00c7\u00c3O, CI\u00caNCIA E TECNOLOGIA DE MINAS GERAIS", "logradouro": "AV. PROFESSOR MARIO WERNECK", "bairro": "BURITIS", "complemento": "", "cidade": "Belo Horizonte", "estado": "MG", "cep": "30575180", "telefone": "", "url": "www.ifmg.edu.br", "tipo": "ipes"}, "geometry": {"type": "Point", "coordinates": [-43.97057, -19.97593]}}, "8": {"type": "Feature", "properties": {"": "19", "id": "5194", "sigla": "IFMS", "nome": "INSTITUTO FED. DE EDUC. CI\u00caNC. E TECN. DE MATO GROSSO DO SUL", "logradouro": "Rua Cear\u00e1", "bairro": "Santa F\u00e9", "complemento": "972", "cidade": "Campo Grande", "estado": "MS", "cep": "79021000", "telefone": "", "url": "www.ifms.edu.br", "tipo": "ipes"}, "geometry": {"type": "Point", "coordinates": [-54.5923, -20.45819]}}, "9": {"type": "Feature", "properties": {"": "26", "id": "5199", "sigla": "IFRJ", "nome": "INSTITUTO FEDERAL DE EDUCACAO, CIENCIA E TECNOLOGIA DO RIO DE JANEIRO", "logradouro": "Rua Senador Furtado", "bairro": "Maracan\u00e3", "complemento": "", "cidade": "Rio de Janeiro", "estado": "RJ", "cep": "20270021", "telefone": "", "url": "http://www.ifrj.edu.br.", "tipo": "ipes"}, "geometry": {"type": "Point", "coordinates": [-43.21274, -22.91249]}}, "10": {"type": "Feature", "properties": {"": "28", "id": "4137", "sigla": "IFRO", "nome": "INSTITUTO FEDERAL DE EDUCA\u00c7\u00c3O CI\u00caNCIA E TECNOLOGIA DE ROND\u00d4NIA", "logradouro": "Avenida Calama", "bairro": "Flodoaldo Pontes Pinto", "complemento": "", "cidade": "Porto Velho", "estado": "RO", "cep": "76804124", "telefone": "", "url": "http://www.ifro.edu.br/", "tipo": "ipes"}, "geometry": {"type": "Point", "coordinates": [-63.904, -8.762]}}, "11": {"type": "Feature", "properties": {"": "30", "id": "5196", "sigla": "IFRS", "nome": "INSTIT.FEDERAL DE EDUC., CI\u00caNC.E TECNOL.DO RIO GRANDE DO SUL", "logradouro": "RUA GENERAL OSORIO", "bairro": "CENTRO", "complemento": "", "cidade": "Bento Gon\u00e7alves", "estado": "RS", "cep": "95700000", "telefone": "", "url": "www.ifrs.edu.br", "tipo": "ipes"}, "geometry": {"type": "Point", "coordinates": [-51.519, -29.171]}}, "12": {"type": "Feature", "properties": {"": "32", "id": "5210", "sigla": "IFSP", "nome": "INSTITUTO FEDERAL DE EDUCA\u00c7\u00c3O, CI\u00caNCIA E TECN. DE S\u00c3O PAULO", "logradouro": "RUA PEDRO VICENTE", "bairro": "CANIND\u00c9", "complemento": "", "cidade": "S\u00e3o Paulo", "estado": "SP", "cep": "01109010", "telefone": "(11)37754569", "url": "www.ifsp.edu.br", "tipo": "ipes"}, "geometry": {"type": "Point", "coordinates": [-46.6219, -23.52418]}}, "13": {"type": "Feature", "properties": {"": "33", "id": "5201", "sigla": "IFSUDESTEMG", "nome": "INSTITUTO FEDERAL DE EDUCACAO, CIENCIA E TECNOLOGIA DO SUDESTE DE MINAS GERAIS", "logradouro": "Rua Luz Interior, 360", "bairro": "Santa Luzia", "complemento": "", "cidade": "Juiz de Fora", "estado": "MG", "cep": "36030776", "telefone": "", "url": "http://www.ifsudestemg.edu.br", "tipo": "ipes"}, "geometry": {"type": "Point", "coordinates": [-43.35, -21.764]}}, "14": {"type": "Feature", "properties": {"": "35", "id": "5301", "sigla": "IFSULDEMINAS", "nome": "INSTITUTO FED. DE EDUC. CI\u00caNC. E TEC. DO SUL DE MINAS GERAIS", "logradouro": "Avenida Vicente Sim\u00f5es", "bairro": "Nova Pouso Alegre", "complemento": "", "cidade": "Pouso Alegre", "estado": "MG", "cep": "37550000", "telefone": "", "url": "http://www.ifsuldeminas.edu.br/", "tipo": "ipes"}, "geometry": {"type": "Point", "coordinates": [-45.90757, -22.25265]}}, "15": {"type": "Feature", "properties": {"": "58", "id": "4234", "sigla": "UERR", "nome": "UNIVERSIDADE ESTADUAL DE RORAIMA", "logradouro": "RUA SETE DE SETEMBRO", "bairro": "CANARINHO", "complemento": "", "cidade": "Boa Vista", "estado": "RR", "cep": "69306530", "telefone": "", "url": "http://www.uerr.edu.br", "tipo": "ipes"}, "geometry": {"type": "Point", "coordinates": [-60.61212, 3.18861]}}, "16": {"type": "Feature", "properties": {"": "86", "id": "4368", "sigla": "UFRA", "nome": "UNIVERSIDADE FEDERAL RURAL DA AMAZ\u00d4NIA", "logradouro": "Av. Tancredo Neves, 2501", "bairro": "Terra Firme", "complemento": "", "cidade": "Bel\u00e9m", "estado": "PA", "cep": "66077530", "telefone": "", "url": "http://www.ufra.edu.br", "tipo": "ipes"}, "geometry": {"type": "Point", "coordinates": [-48.504, -1.456]}}, "17": {"type": "Feature", "properties": {"": "110", "id": "4296", "sigla": "UNICAMP", "nome": "UNIVERSIDADE ESTADUAL DE CAMPINAS", "logradouro": "CIDADE UNIVERSIT\u00c1RIA \"ZEFERINO VAZ\"", "bairro": "BAR\u00c3O GERALDO", "complemento": "", "cidade": "Campinas", "estado": "SP", "cep": "00000000", "telefone": "", "url": "", "tipo": "ipes"}, "geometry": {"type": "Point", "coordinates": [-47.06702, -22.82439]}}, "18": {"type": "Feature", "properties": {"": "116", "id": "4011", "sigla": "UNIFIMES", "nome": "CENTRO UNIVERSIT\u00c1RIO DE MINEIROS", "logradouro": "Rua 22 esq. Avenida 21, s/n", "bairro": "Setor Aeroporto", "complemento": ".", "cidade": "Mineiros", "estado": "GO", "cep": "75.830-000", "telefone": "(64)3672-5100", "url": "www.unifimes.edu.br", "tipo": "ipes"}, "geometry": {"type": "Point", "coordinates": [-52.71395, -17.40125]}}, "19": {"type": "Feature", "properties": {"": "129", "id": "4610", "sigla": "UVA-CE", "nome": "UNIVERSIDADE ESTADUAL VALE DO ACARA\u00da", "logradouro": "AVENIDA DA UNIVERSIDADE", "bairro": "BET\u00c1NIA", "complemento": "", "cidade": "Sobral", "estado": "CE", "cep": "62040370", "telefone": "", "url": "http://www.uvanet.br", "tipo": "ipes"}, "geometry": {"type": "Point", "coordinates": [-40.15884, -3.83763]}}}, "type": "FeatureCollection"}